     2.10           OBSERVATION DATA    G                   RINEX VERSION / TYPE
teqc  2015Nov6                          20160524 15:03:13UTCPGM / RUN BY / DATE 
gfzrnx-2.1.12       FILE PROCESSING     20250424 030027 UTC COMMENT             
INITIAL_RINEX_VERSION: 2.11                                 COMMENT             
HKKS                                                        MARKER NAME         
23005M001                                                   MARKER NUMBER       
SMO                 Lands Department HKSAR                  OBSERVER / AGENCY   
5338K45583          TRIMBLE NETR9       5.10                REC # / TYPE / VERS 
5343354868          TRM59800.00     SCIS                    ANT # / TYPE        
        0.0080        0.0000        0.0000                  ANTENNA: DELTA H/E/N
 -2429525.8966  5377816.6360  2412152.7354                  APPROX POSITION XYZ 
     7    C1    C2    C5    L1    L2    L5    P2            # / TYPES OF OBSERV 
Linux2.6.32-279.el6.x86_64|x86_64|gcc|Win64-MinGW64|=       COMMENT             
R3Converter 1.23    SMO                 20160524 143621 UTC COMMENT             
----------------------------------------------------------- COMMENT             
     1     1                                                WAVELENGTH FACT L1/2
     0                                                      RCV CLOCK OFFS APPL 
    17                                                      LEAP SECONDS        
CARRIER PHASE MEASUREMENTS: PHASE SHIFTS REMOVED            COMMENT             
----------------------------------------------------------- COMMENT             
cnvtToRINEX 2.30.0  SMO                 24-May-16 13:17 UTC COMMENT             
Forced Modulo Decimation to 5 seconds                       COMMENT             
----------------------------------------------------------- COMMENT             
GFZRNX.NUM_EPOCHS: 720                                      COMMENT
    11                                                      # OF SATELLITES     
   G10   720   720   720   720   720   720   720            PRN / # OF OBS      
   G12   720   720         720   720         720            PRN / # OF OBS      
   G14   720               720   720         720            PRN / # OF OBS      
   G15   720   717         717   717         717            PRN / # OF OBS      
   G18   720               720   720         720            PRN / # OF OBS      
   G20   720               718   718         718            PRN / # OF OBS      
   G21   720               720   720         720            PRN / # OF OBS      
   G24   720   720   720   720   720   720   720            PRN / # OF OBS      
   G25   720   720   720   720   720   720   720            PRN / # OF OBS      
   G31   720   720         720   720         720            PRN / # OF OBS      
   G32   720   720   720   720   720   720   720            PRN / # OF OBS      
     5.000                                                  INTERVAL            
  2016     4    20     0     0    0.0000000     GPS         TIME OF FIRST OBS   
  2016     4    20     0    59   55.0000000     GPS         TIME OF LAST OBS    
                                                            END OF HEADER      
 16 04 20 00 00 00.0000000  0 11G10G12G14G15G18G20G21G24G25G31G32   
  21596693.703 7  21596701.172 9  21596701.539 9 113491417.922 7  88434864.374 9
  84750076.663 9  21596701.48049
  22128335.563 6  22128341.496 9                 116285114.452 6  90611844.197 9
                  22128341.19948
  23060554.336 5                                 121183979.571 5  94429102.54547
                  23060560.00447
  23945787.898 5  23945793.363 8                 125836086.158 5  98054033.114 8
                  23945792.82847
  20340279.383 7                                 106888893.034 7  83290054.44049
                  20340283.78549
  22907264.703 6                                 120378497.391 6  93801480.25347
                  22907270.40647
  21753815.797 7                                 114317133.002 7  89078253.51548
                  21753820.95748
  22136362.984 6  22136371.480 9  22136373.637 9 116327374.082 6  90644746.873 9
  86867887.193 9  22136371.60248
  22464795.820 6  22464804.535 9  22464806.484 9 118053288.019 6  91989620.849 9
  88156729.109 9  22464804.66048
  24016988.414 5  24016994.527 8                 126209914.671 5  98345575.320 8
                  24016994.76646
  23087067.352 6  23087076.102 9  23087076.930 9 121323315.322 6  94537686.175 9
  90598620.519 9  23087075.84047
 16 04 20 00 00 05.0000000  0 11G10G12G14G15G18G20G21G24G25G31G32   
  21594376.195 7  21594383.426 9  21594383.836 9 113479238.316 7  88425373.774 9
  84740981.497 9  21594383.66049
  22127206.461 6  22127212.332 9                 116279180.642 6  90607220.450 9
                  22127212.09448
  23059524.586 5                                 121178570.616 5  94424887.77547
                  23059530.54347
  23947519.305 6  23947525.492 8                 125845186.733 6  98061124.472 8
                  23947524.73047
  20339420.078 7                                 106884377.770 7  83286536.05049
                  20339424.17249
  22909861.992 6                                 120392142.097 6  93812112.47747
                  22909867.04747
  21755679.750 7                                 114326927.100 7  89085885.27448
                  21755684.88348
  22139099.086 6  22139107.000 9  22139108.887 9 116341749.504 6  90655948.493 9
  86878622.073 9  22139106.85248
  22462214.422 6  22462223.176 9  22462225.031 9 118039724.033 6  91979051.501 9
  88146600.165 9  22462223.09048
  24013834.148 5  24013840.398 8                 126193338.001 5  98332658.440 8
                  24013840.28146
  23085789.281 6  23085796.941 9  23085797.918 9 121316594.573 6  94532449.218 9
  90593601.775 9  23085796.77047
 16 04 20 00 00 10.0000000  0 11G10G12G14G15G18G20G21G24G25G31G32   
  21592059.148 7  21592066.543 9  21592066.793 9 113467064.375 7  88415887.582 9
  84731890.571 9  21592066.90649
  22126079.719 6  22126085.703 9                 116273259.658 6  90602606.690 9
                  22126085.56648
  23058496.070 6                                 121173162.782 6  94420673.87747
                  23058501.06347
  23949251.711 6  23949257.297 8                 125854286.788 6  98068215.432 8
                  23949256.59046
  20338562.906 7                                 106879873.007 7  83283025.84449
                  20338567.28949
  22912459.258 6                                 120405794.412 6  93822750.63647
                  22912465.13347
  21757545.336 7                                 114336730.723 7  89093524.45548
                  21757550.02348
  22141835.648 6  22141843.574 9  22141845.570 9 116356130.333 6  90667154.336 9
  86889361.002 9  22141843.35948
  22459634.789 6  22459643.074 9  22459645.355 9 118026165.828 6  91968486.681 9
  88136475.537 9  22459643.06348
  24010680.258 5  24010687.336 8                 126176767.581 5  98319746.425 8
                  24010686.95346
  23084509.953 6  23084518.293 9  23084519.078 9 121309874.750 6  94527212.995 9
  90588583.721 9  23084518.34047
 16 04 20 00 00 15.0000000  0 11G10G12G14G15G18G20G21G24G25G31G32   
  21589743.648 7  21589751.316 9  21589751.625 9 113454896.476 7  88406406.105 9
  84722804.152 9  21589751.73849
  22124955.234 6  22124960.727 9                 116267351.876 6  90598003.221 9
                  22124960.89148
  23057466.422 5                                 121167756.435 5  94416461.14047
                  23057472.57047
  23950983.602 5  23950989.266 8                 125863386.786 5  98075306.328 8
                  23950988.97747
  20337707.594 7                                 106875379.105 7  83279524.10349
                  20337712.02749
  22915058.828 6                                 120419454.721 6  93833395.01947
                  22915064.98447
  21759412.547 7                                 114346544.241 7  89101171.35048
                  21759417.95748
  22144573.211 6  22144581.551 9  22144583.266 9 116370517.040 6  90678364.756 9
  86900104.316 9  22144581.11348
  22457055.320 6  22457064.598 9  22457066.668 9 118012613.807 6  91957926.642 9
  88126355.519 9  22457064.02347
  24007528.828 5  24007535.219 8                 126160203.757 5  98306839.548 8
                  24007534.72746
  23083231.516 6  23083239.961 9  23083240.492 9 121303156.178 6  94521977.740 9
  90583566.601 9  23083239.75447
 16 04 20 00 00 20.0000000  0 11G10G12G14G15G18G20G21G24G25G31G32   
  21587429.422 7  21587436.488 9  21587436.852 9 113442734.377 7  88396929.144 9
  84713722.068 9  21587437.14149
  22123833.492 6  22123839.723 9                 116261456.987 6  90593409.797 9
                  22123839.87548
  23056438.773 6                                 121162351.287 6  94412249.33747
                  23056443.88747
  23952714.469 5  23952720.969 8                 125872486.442 5  98082396.957 8
                  23952720.99247
  20336854.617 7                                 106870895.777 7  83276030.59349
                  20336858.61749
  22917660.070 6                                 120433122.724 6  93844045.40247
                  22917666.31647
  21761281.906 7                                 114356367.378 7  89108825.73448
                  21761287.14548
  22147312.469 6  22147320.078 9  22147322.105 9 116384909.287 6  90689579.477 9
  86910851.765 9  22147320.07048
  22454478.484 6  22454486.270 9  22454488.719 9 117999067.671 6  91947371.222 9
  88116239.904 9  22454486.13348
  24004378.297 5  24004383.918 8                 126143646.280 5  98293937.624 8
                  24004383.78546
  23081953.492 6  23081961.074 9  23081962.500 9 121296438.548 6  94516743.224 9
  90578550.189 9  23081961.58647
 16 04 20 00 00 25.0000000  0 11G10G12G14G15G18G20G21G24G25G31G32   
  21585116.102 7  21585123.707 9  21585124.000 9 113430577.919 7  88387456.586 9
  84704644.194 9  21585124.11349
  22122713.906 6  22122719.895 9                 116255575.029 6  90588826.454 9
                  22122719.86748
  23055410.164 5                                 121156947.191 5  94408038.34647
                  23055415.68847
  23954445.688 5  23954452.762 8                 125881585.593 5  98089487.179 8
                  23954453.00847
  20336003.250 7                                 106866422.920 7  83272545.24949
                  20336007.54749
  22920262.359 6                                 120446798.277 6  93854701.66147
                  22920267.85247
  21763153.266 7                                 114366199.972 7  89116487.48848
                  21763158.06348
  22150051.953 6  22150060.211 9  22150062.133 9 116399306.928 6  90700798.416 9
  86921603.248 9  22150060.04348
  22451901.227 6  22451910.359 9  22451911.949 9 117985527.350 6  91936820.315 9
  88106128.622 9  22451909.65648
  24001228.391 5  24001234.570 8                 126127095.031 5  98281040.543 8
                  24001234.21946
  23080675.594 6  23080683.441 9  23080684.328 9 121289721.782 6  94511509.376 9
  90573534.419 9  23080683.23847
 16 04 20 00 00 30.0000000  0 11G10G12G14G15G18G20G21G24G25G31G32   
  21582804.016 7  21582811.141 9  21582811.547 9 113418427.483 7  88377988.708 9
  84695570.815 9  21582811.60249
  22121597.516 6  22121603.359 9                 116249706.235 6  90584253.377 9
                  22121603.62548
  23054381.656 6                                 121151544.578 6  94403828.52147
                  23054387.73047
  23956177.227 5  23956184.336 8                 125890684.643 5  98096577.338 8
                  23956184.65647
  20335154.289 7                                 106861960.847 7  83269068.30549
                  20335158.98449
  22922866.625 6                                 120460481.719 6  93865364.06047
                  22922872.18447
  21765025.875 7                                 114376042.357 7  89124156.87048
                  21765031.02748
  22152792.633 6  22152800.691 9  22152802.879 9 116413710.349 6  90712021.865 9
  86932359.044 9  22152800.43448
  22449326.031 6  22449335.168 9  22449336.516 9 117971993.126 6  91926274.174 9
  88096021.897 9  22449334.62948
  23998080.055 5  23998086.332 8                 126110550.302 5  98268148.546 8
                  23998085.93046
  23079397.508 6  23079405.125 9  23079406.336 9 121283006.178 6  94506276.437 9
  90568519.516 9  23079405.07047
 16 04 20 00 00 35.0000000  0 11G10G12G14G15G18G20G21G24G25G31G32   
  21580492.758 7  21580500.156 9  21580500.281 9 113406282.621 7  88368525.182 9
  84686501.603 9  21580500.62949
  22120482.633 6  22120489.164 9                 116243850.149 6  90579690.199 9
                  22120489.45348
  23053354.023 6                                 121146142.939 6  94399619.44047
                  23053359.72747
  23957908.234 5  23957916.109 8                 125899783.113 5  98103667.048 8
                  23957916.07847
  20334307.031 7                                 106857509.100 7  83265599.40849
                  20334311.51249
  22925472.102 6                                 120474172.610 6  93876032.27547
                  22925476.99247
  21766900.500 7                                 114385894.102 7  89131833.55348
                  21766906.09048
  22155534.492 6  22155542.582 9  22155544.508 9 116428119.117 6  90723249.473 9
  86943118.831 9  22155542.41448
  22446751.531 6  22446760.555 9  22446762.152 9 117958464.637 6  91915732.494 9
  88085919.453 9  22446760.44547
  23994933.172 5  23994939.656 8                 126094011.739 5  98255261.358 8
                  23994939.06346
  23078119.141 6  23078127.102 9  23078128.324 9 121276291.298 6  94501044.064 9
  90563505.155 9  23078127.41047
 16 04 20 00 00 40.0000000  0 11G10G12G14G15G18G20G21G24G25G31G32   
  21578183.109 7  21578190.398 9  21578190.621 9 113394143.491 7  88359066.124 9
  84677436.669 9  21578190.79349
  22119371.172 6  22119376.918 9                 116238006.915 6  90575137.028 9
                  22119377.32048
  23052326.469 6                                 121140742.371 6  94395411.20547
                  23052331.97747
  23959639.227 5  23959647.059 8                 125908881.172 5  98110756.424 8
                  23959647.58647
  20333461.992 7                                 106853067.915 7  83262138.73949
                  20333466.69149
  22928078.383 6                                 120487871.090 6  93886706.41747
                  22928083.74647
  21768777.438 7                                 114395755.282 7  89139517.57848
                  21768782.35548
  22158278.141 6  22158285.840 9  22158287.852 9 116442533.330 6  90734481.310 9
  86953882.684 9  22158285.75848
  22444178.188 6  22444187.293 9  22444189.324 9 117944942.013 6  91905195.394 9
  88075821.389 9  22444187.44148
  23991786.883 5  23991793.914 8                 126077479.400 5  98242379.017 8
                  23991793.05946
  23076841.703 6  23076850.367 9  23076851.039 9 121269577.251 6  94495812.332 9
  90558491.417 9  23076850.00847
 16 04 20 00 00 45.0000000  0 11G10G12G14G15G18G20G21G24G25G31G32   
  21575873.852 7  21575881.406 9  21575881.832 9 113382010.265 7  88349611.662 9
  84668376.142 9  21575881.94549
  22118261.438 6  22118267.453 9                 116232176.683 6  90570593.988 9
                  22118267.61748
  23051298.305 5                                 121135343.010 5  94391203.91247
                  23051304.32447
  23961371.328 5  23961378.285 8                 125917978.950 5  98117845.579 8
                  23961378.96547
  20332619.055 7                                 106848637.405 7  83258686.39249
                  20332623.07849
  22930686.461 6                                 120501577.311 6  93897386.57547
                  22930692.35547
  21770656.172 7                                 114405626.053 7  89147209.07748
                  21770660.72348
  22161021.703 6  22161029.949 9  22161031.758 9 116456953.075 6  90745717.474 9
  86964650.671 9  22161029.60548
  22441605.883 6  22441615.211 9  22441617.605 9 117931425.436 6  91894662.988 9
  88065727.838 9  22441615.07848
  23988642.109 5  23988648.684 8                 126060953.489 5  98229501.675 8
                  23988648.17646
  23075564.484 6  23075572.262 9  23075573.305 9 121262864.211 6  94490581.393 9
  90553478.429 9  23075572.44947
 16 04 20 00 00 50.0000000  0 11G10G12G14G15G18G20G21G24G25G31G32   
  21573566.039 7  21573573.242 9  21573573.719 9 113369882.880 7  88340161.748 9
  84659319.972 9  21573573.89149
  22117154.492 6  22117160.555 9                 116226359.436 6  90566061.067 9
                  22117160.47348
  23050271.352 5                                 121129944.849 5  94386997.54647
                  23050277.17647
  23963102.227 5  23963109.008 8                 125927076.398 5  98124934.475 8
                  23963109.54747
  20331778.227 7                                 106844217.538 7  83255242.34249
                  20331782.33249
  22933296.375 6                                 120515291.226 6  93908072.73147
                  22933301.76247
  21772536.297 7                                 114415506.362 7  89154908.02248
                  21772541.05148
  22163766.930 6  22163774.770 9  22163776.621 9 116471378.299 6  90756957.911 9
  86975422.752 9  22163774.64848
  22439034.602 6  22439043.785 9  22439046.461 9 117917914.815 6  91884135.251 9
  88055638.746 9  22439043.40648
  23985498.406 5  23985504.414 8                 126044433.917 5  98216629.283 8
                  23985504.24646
  23074287.477 6  23074295.324 9  23074295.977 9 121256152.154 6  94485351.213 9
  90548466.180 9  23074295.00447
 16 04 20 00 00 55.0000000  0 11G10G12G14G15G18G20G21G24G25G31G32   
  21571259.641 7  21571267.008 9  21571267.219 9 113357761.503 7  88330716.521 9
  84650268.298 9  21571267.56649
  22116050.234 6  22116056.371 9                 116220555.378 6  90561538.422 9
                  22116056.41048
  23049244.883 6                                 121124548.022 6  94382792.22247
                  23049250.72347
  23964833.852 5  23964840.305 8                 125936173.650 5  98132023.233 8
                  23964840.45747
  20330938.984 7                                 106839808.515 7  83251806.73449
                  20330942.90649
  22935907.289 5                                 120529012.997 5  93918765.00447
                  22935913.74647
  21774417.648 7                                 114425396.351 7  89162614.50148
                  21774423.02748
  22166513.148 6  22166521.043 9  22166522.762 9 116485809.044 6  90768202.647 9
  86986198.951 9  22166520.72748
  22436465.141 6  22436473.922 9  22436476.668 9 117904410.353 6  91873612.275 9
  88045554.247 9  22436473.37947
  23982356.000 5  23982362.137 8                 126027920.852 5  98203761.965 8
                  23982362.00846
  23073010.391 6  23073017.965 9  23073018.785 9 121249441.167 6  94480121.869 9
  90543454.724 9  23073017.52047
 16 04 20 00 01 00.0000000  0 11G10G12G14G15G18G20G21G24G25G31G32   
  21568954.258 7  21568961.324 9  21568961.586 9 113345646.018 7  88321275.880 9
  84641221.020 9  21568962.05149
  22114948.438 6  22114954.043 9                 116214764.340 6  90557025.924 9
                  22114953.75048
  23048217.484 5                                 121119152.336 5  94378587.79047
                  23048223.59047
  23966564.570 5  23966570.707 8                 125945270.541 5  98139111.716 8
                  23966570.85947
  20330102.039 7                                 106835410.165 7  83248379.44449
                  20330106.22749
  22938519.891 6                                 120542742.396 6  93929463.22947
                  22938526.45347
  21776301.617 7                                 114435295.867 7  89170328.39548
                  21776306.75048
  22169259.484 6  22169268.242 9  22169270.023 9 116500245.323 6  90779451.686 9
  86996979.284 9  22169268.10548
  22433896.445 6  22433904.930 9  22433907.383 9 117890911.944 6  91863094.035 9
  88035474.274 9  22433904.56348
  23979214.930 5  23979221.113 8                 126011414.244 5  98190899.665 8
                  23979220.79746
  23071732.891 6  23071741.414 9  23071742.211 9 121242731.136 6  94474893.270 9
  90538443.984 9  23071741.18047
 16 04 20 00 01 05.0000000  0 11G10G12G14G15G18G20G21G24G25G31G32   
  21566649.609 7  21566657.000 9  21566657.215 9 113333536.299 7  88311839.740 9
  84632178.047 9  21566657.44549
  22113849.047 6  22113855.016 9                 116208986.254 6  90552523.519 9
                  22113854.76648
  23047190.758 6                                 121113757.759 6  94374384.22447
                  23047196.87947
  23968295.352 5  23968301.625 8                 125954367.015 5  98146199.878 8
                  23968301.39547
  20329266.898 7                                 106831022.350 7  83244960.36549
                  20329271.70349
  22941133.586 6                                 120556479.314 6  93940167.30047
                  22941140.23847
  21778187.328 7                                 114445204.756 7  89178049.60148
                  21778192.43848
  22172007.945 6  22172016.098 9  22172018.203 9 116514686.942 6  90790704.882 9
  87007763.607 9  22172016.05148
  22431329.219 6  22431338.035 9  22431339.805 9 117877419.484 6  91852580.428 9
  88025398.729 9  22431337.68848
  23976075.336 5  23976081.789 8                 125994913.989 5  98178042.332 8
                  23976081.47746
  23070456.836 6  23070464.641 9  23070465.484 9 121236021.923 6  94469665.304 9
  90533433.851 9  23070464.45347
 16 04 20 00 01 10.0000000  0 11G10G12G14G15G18G20G21G24G25G31G32   
  21564346.422 7  21564353.883 9  21564354.293 9 113321432.428 7  88302408.156 9
  84623139.440 9  21564354.34849
  22112751.664 6  22112757.148 9                 116203221.099 6  90548031.194 9
                  22112757.31648
  23046165.195 6                                 121108364.219 6  94370181.46447
                  23046170.48447
  23970026.773 5  23970032.691 8                 125963463.098 5  98153287.730 8
                  23970032.36747
  20328433.914 7                                 106826645.153 7  83241549.56349
                  20328438.30549
  22943749.250 6                                 120570223.802 6  93950877.28047
                  22943755.10247
  21780074.859 7                                 114455123.078 7  89185778.16548
                  21780079.61748
  22174757.227 6  22174765.063 9  22174766.988 9 116529134.007 6  90801962.334 9
  87018551.995 9  22174765.07048
  22428762.758 6  22428771.734 9  22428773.402 9 117863932.987 6  91842071.463 9
  88015327.647 9  22428771.34448
  23972936.547 5  23972942.516 8                 125978420.089 5  98165189.944 8
                  23972942.35246
  23069179.938 6  23069188.215 9  23069188.828 9 121229313.594 6  94464438.038 9
  90528424.385 9  23069187.97347
 16 04 20 00 01 15.0000000  0 11G10G12G14G15G18G20G21G24G25G31G32   
  21562044.203 7  21562051.703 9  21562051.977 9 113309334.637 7  88292981.301 9
  84614105.374 9  21562052.15249
  22111657.148 6  22111663.027 9                 116197469.223 6  90543549.205 9
                  22111662.80148
  23045138.773 6                                 121102972.079 6  94365979.79147
                  23045144.64147
  23971757.438 5  23971763.973 8                 125972559.027 5  98160375.472 8
                  23971763.35247
  20327603.313 7                                 106822278.878 7  83238147.26449
                  20327607.07449
  22946366.547 6                                 120583976.134 6  93961593.37747
                  22946371.79747
  21781963.883 7                                 114465051.078 7  89193514.26448
                  21781968.70748
  22177507.523 6  22177515.387 9  22177517.180 9 116543586.573 6  90813224.078 9
  87029344.483 9  22177515.14548
  22426196.961 6  22426206.059 9  22426208.020 9 117850452.753 6  91831567.392 9
  88005261.228 9  22426206.37148
  23969799.063 5  23969805.695 8                 125961932.814 5  98152342.718 8
                  23969805.33646
  23067903.266 6  23067911.637 9  23067912.621 9 121222606.398 6  94459211.647 9
  90523415.760 9  23067911.76647
 16 04 20 00 01 20.0000000  0 11G10G12G14G15G18G20G21G24G25G31G32   
  21559743.047 7  21559750.773 9  21559751.199 9 113297242.684 7  88283558.999 9
  84605075.672 9  21559751.31349
  22110565.367 6  22110571.227 9                 116191730.300 6  90539077.320 9
                  22110571.20348
  23044112.898 6                                 121097581.017 6  94361778.95947
                  23044118.70347
  23973488.953 5  23973495.090 8                 125981654.576 5  98167462.911 8
                  23973494.79347
  20326774.234 7                                 106817923.199 7  83234753.22749
                  20326778.67649
  22948985.086 6                                 120597736.007 6  93972315.34747
                  22948990.33647
  21783854.844 6                                 114474988.453 6  89201257.66548
                  21783859.66848
  22180258.609 6  22180266.828 9  22180268.480 9 116558044.582 6  90824490.049 9
  87040141.045 9  22180266.38748
  22423633.344 6  22423642.402 9  22423644.301 9 117836978.537 6  91821068.010 9
  87995199.327 9  22423642.24248
  23966662.641 5  23966669.566 8                 125945451.903 5  98139500.447 8
                  23966668.86346
  23066627.195 6  23066635.566 9  23066636.547 9 121215900.002 6  94453985.887 9
  90518407.739 9  23066635.63347
 16 04 20 00 01 25.0000000  0 11G10G12G14G15G18G20G21G24G25G31G32   
  21557443.344 7  21557450.660 9  21557451.000 9 113285156.749 7  88274141.389 9
  84596050.459 9  21557451.29349
  22109475.563 6  22109481.047 9                 116186004.521 6  90534615.665 9
                  22109481.16048
  23043087.289 6                                 121092191.142 6  94357579.05847
                  23043092.94547
  23975218.664 5  23975225.613 8                 125990749.823 5  98174550.108 8
                  23975225.61347
  20325947.891 7                                 106813578.259 7  83231367.55249
                  20325951.92649
  22951604.836 6                                 120611503.588 6  93983043.32347
                  22951610.15647
  21785747.883 6                                 114484935.373 6  89209008.50448
                  21785752.89548
  22183011.391 6  22183019.488 9  22183021.348 9 116572508.049 6  90835760.278 9
  87050941.683 9  22183019.31648
  22421070.984 6  22421079.223 9  22421081.598 9 117823510.491 6  91810573.434 9
  87985142.018 9  22421079.01248
  23963527.742 5  23963534.254 8                 125928977.545 5  98126663.286 8
                  23963534.24646
  23065351.078 6  23065359.004 9  23065360.281 9 121209194.657 6  94448760.938 9
  90513400.496 9  23065359.13347
 16 04 20 00 01 30.0000000  0 11G10G12G14G15G18G20G21G24G25G31G32   
  21555144.578 7  21555152.008 9  21555152.324 9 113273076.528 7  88264728.228 9
  84587029.512 9  21555152.32049
  22108388.266 6  22108394.309 9                 116180291.624 6  90530164.055 9
                  22108394.24248
  23042062.234 6                                 121086802.229 6  94353379.90447
                  23042067.35547
  23976949.844 5  23976955.910 8                 125999844.541 5  98181636.874 8
                  23976956.53147
  20325122.578 7                                 106809243.805 7  83227990.05749
                  20325126.73449
  22954225.836 6                                 120625278.540 6  93993777.04047
                  22954231.68447
  21787642.328 7                                 114494891.503 7  89216766.51948
                  21787647.61748
  22185764.164 6  22185772.262 9  22185774.016 9 116586976.620 6  90847034.474 9
  87061746.126 9  22185771.98448
  22418508.492 6  22418517.492 9  22418520.129 9 117810048.308 6  91800083.408 9
  87975089.086 9  22418517.48448
  23960394.391 5  23960400.563 8                 125912509.379 5  98113830.947 8
                  23960400.71546
  23064075.430 6  23064083.773 9  23064084.508 9 121202489.961 6  94443536.503 9
  90508393.741 9  23064083.47747
 16 04 20 00 01 35.0000000  0 11G10G12G14G15G18G20G21G24G25G31G32   
  21552847.250 7  21552854.453 9  21552854.711 9 113261002.370 7  88255319.793 9
  84578013.097 9  21552854.82449
  22107303.734 6  22107309.461 9                 116174591.938 6  90525722.741 9
                  22107309.27348
  23041037.266 6                                 121081414.599 6  94349181.74347
                  23041041.87547
  23978680.508 5  23978687.203 8                 126008939.086 5  98188723.515 8
                  23978687.34847
  20324300.250 7                                 106804920.191 7  83224620.99949
                  20324304.18049
  22956848.891 6                                 120639061.258 6  94004516.79747
                  22956855.07047
  21789538.859 6                                 114504857.184 6  89224531.97548
                  21789543.66448
  22188518.789 6  22188527.059 9  22188528.574 9 116601450.673 6  90858312.963 9
  87072554.663 9  22188526.65648
  22415948.406 6  22415957.191 9  22415959.125 9 117796592.409 6  91789598.283 9
  87965040.846 9  22415956.65648
  23957261.563 5  23957267.516 8                 125896047.779 5  98101003.724 8
                  23957267.69146
  23062799.461 6  23062807.770 9  23062808.680 9 121195786.376 6  94438312.929 9
  90503387.816 9  23062807.82447
 16 04 20 00 01 40.0000000  0 11G10G12G14G15G18G20G21G24G25G31G32   
  21550550.805 7  21550557.715 9  21550558.133 9 113248934.221 7  88245916.044 9
  84569001.163 9  21550558.30949
  22106221.680 6  22106227.465 9                 116168905.349 6  90521291.634 9
                  22106227.48848
  23040011.781 6                                 121076028.099 6  94344984.47247
                  23040017.01647
  23980411.531 5  23980417.539 8                 126018033.314 5  98195809.917 8
                  23980417.90247
  20323479.250 7                                 106800607.348 7  83221260.34549
                  20323483.69949
  22959473.477 6                                 120652851.564 6  94015262.47847
                  22959479.53947
  21791437.023 7                                 114514832.282 7  89232304.77948
                  21791441.79348
  22191274.125 6  22191282.066 9  22191283.816 9 116615930.191 6  90869595.697 9
  87083367.288 9  22191282.13348
  22413388.953 6  22413398.152 9  22413399.797 9 117783142.660 6  91779117.962 9
  87954997.201 9  22413397.61748
  23954130.609 5  23954136.184 8                 125879592.728 5  98088181.607 8
                  23954136.65246
  23061524.539 6  23061532.195 9  23061533.191 9 121189083.682 6  94433090.043 9
  90498382.549 9  23061532.27747
 16 04 20 00 01 45.0000000  0 11G10G12G14G15G18G20G21G24G25G31G32   
  21548255.172 7  21548262.695 9  21548262.926 9 113236872.143 7  88236517.023 9
  84559993.772 9  21548263.03949
  22105141.977 6  22105147.672 9                 116163232.006 6  90516870.856 9
                  22105147.58248
  23038986.961 6                                 121070642.845 6  94340788.16147
                  23038992.26247
  23982142.141 5  23982147.859 8                 126027127.333 5  98202896.162 8
                  23982148.13347
  20322660.688 7                                 106796305.402 7  83217908.17149
                  20322665.19949
  22962099.000 6                                 120666649.621 6  94026014.20747
                  22962105.09047
  21793337.047 7                                 114524816.901 7  89240084.99148
                  21793341.98448
  22194030.266 6  22194038.563 9  22194040.309 9 116630415.160 6  90880882.682 9
  87094183.976 9  22194038.68448
  22410830.258 6  22410839.879 9  22410841.137 9 117769699.196 6  91768642.536 9
  87944958.251 9  22410839.60548
  23950999.250 5  23951005.945 8                 125863144.201 5  98075364.567 8
                  23951006.16846
  23060249.453 6  23060257.563 9  23060258.137 9 121182382.015 6  94427867.959 9
  90493378.055 9  23060257.86747
 16 04 20 00 01 50.0000000  0 11G10G12G14G15G18G20G21G24G25G31G32   
  21545960.859 7  21545968.656 9  21545968.684 9 113224815.764 7  88227122.441 9
  84550990.628 9  21545968.79749
  22104065.039 6  22104070.539 9                 116157571.493 6  90512460.058 9
                  22104070.37548
  23037962.523 6                                 121065258.421 6  94336592.51647
                  23037967.66447
  23983871.766 5  23983878.504 8                 126036220.769 5  98209981.940 8
                  23983878.77047
  20321844.281 7                                 106792013.890 7  83214564.13549
                  20321848.58249
  22964725.484 6                                 120680454.965 6  94036771.61247
                  22964731.89847
  21795238.953 7                                 114534810.655 7  89247872.32748
                  21795244.20348
  22196787.844 6  22196796.012 9  22196797.898 9 116644905.175 6  90892173.587 9
  87105004.434 9  22196795.92648
  22408273.461 6  22408282.730 9  22408283.969 9 117756261.598 6  91758171.695 9
  87934923.681 9  22408282.78948
  23947871.414 5  23947877.539 8                 125846701.932 5  98062552.426 8
                  23947877.59046
  23058973.844 6  23058981.758 9  23058982.598 9 121175680.977 6  94422646.372 9
  90488374.032 9  23058982.03547
 16 04 20 00 01 55.0000000  0 11G10G12G14G15G18G20G21G24G25G31G32   
  21543667.773 7  21543675.160 9  21543675.352 9 113212765.353 7  88217732.508 9
  84541991.945 9  21543675.58249
  22102990.453 6  22102995.957 9                 116151924.063 6  90508059.465 9
                  22102995.89848
  23036937.445 6                                 121059875.100 6  94332397.70647
                  23036943.47747
  23985602.125 5  23985608.766 8                 126045313.847 5  98217067.432 8
                  23985609.02747
  20321029.383 7                                 106787733.134 7  83211228.47849
                  20321033.35949
  22967354.305 6                                 120694267.860 6  94047534.87947
                  22967360.29347
  21797142.484 6                                 114544813.735 6  89255666.92548
                  21797147.13348
  22199546.156 6  22199554.313 9  22199556.141 9 116659400.562 6  90903468.692 9
  87115828.907 9  22199554.16448
  22405717.688 6  22405726.484 9  22405728.086 9 117742830.172 6  91747705.647 9
  87924893.720 9  22405726.43848
  23944743.508 5  23944750.348 8                 125830266.135 5  98049745.297 8
                  23944750.18846
  23057698.695 6  23057706.844 9  23057707.801 9 121168980.804 6  94417425.453 9
  90483370.652 9  23057707.12147
 16 04 20 00 02 00.0000000  0 11G10G12G14G15G18G20G21G24G25G31G32   
  21541376.109 7  21541383.156 9  21541383.535 9 113200721.047 7  88208347.337 9
  84532997.820 9  21541383.76649
  22101918.125 6  22101923.902 9                 116146289.912 6  90503669.215 9
                  22101923.99248
  23035914.070 6                                 121054493.039 6  94328203.88947
                  23035918.89847
  23987332.867 5  23987339.359 8                 126054406.670 5  98224152.740 8
                  23987339.51247
  20320216.961 7                                 106783463.230 7  83207901.27449
                  20320220.91049
  22969984.539 6                                 120708088.428 6  94058304.14047
                  22969990.58247
  21799047.891 7                                 114554826.323 7  89263468.94048
                  21799052.64848
  22202305.250 6  22202313.445 9  22202315.395 9 116673901.413 6  90914768.054 9
  87126657.456 9  22202313.47748
  22403163.180 6  22403171.801 9  22403174.172 9 117729405.061 6  91737244.512 9
  87914868.469 9  22403172.05548
  23941617.664 5  23941623.695 8                 125813836.928 5  98036943.317 8
                  23941623.94546
  23056424.094 6  23056431.965 9  23056433.105 9 121162281.641 6  94412205.324 9
  90478368.024 9  23056432.42647
 16 04 20 00 02 05.0000000  0 11G10G12G14G15G18G20G21G24G25G31G32   
  21539085.039 7  21539092.523 9  21539092.695 9 113188682.944 7  88198966.998 9
  84524008.329 9  21539092.81349
  22100848.992 6  22100854.355 9                 116140669.088 6  90499289.353 9
                  22100854.17648
  23034889.445 6                                 121049112.326 6  94324011.12447
                  23034895.39847
  23989063.203 5  23989069.539 8                 126063499.379 5  98231237.979 8
                  23989069.63347
  20319406.250 7                                 106779204.282 7  83204582.61149
                  20319410.48049
  22972616.203 6                                 120721916.817 6  94069079.49547
                  22972621.99247
  21800954.781 7                                 114564848.413 7  89271278.35648
                  21800959.69948
  22205065.609 6  22205074.176 9  22205075.883 9 116688407.727 6  90926071.671 9
  87137490.087 9  22205073.96548
  22400609.266 6  22400618.430 9  22400620.543 9 117715986.378 6  91726788.398 9
  87904848.016 9  22400617.78148
  23938492.164 5  23938498.582 8                 125797414.454 5  98024146.581 8
                  23938498.64546
  23055149.414 6  23055157.512 9  23055158.625 9 121155583.561 6  94406986.043 9
  90473366.212 9  23055157.53547
 16 04 20 00 02 10.0000000  0 11G10G12G14G15G18G20G21G24G25G31G32   
  21536795.352 7  21536802.648 9  21536802.852 9 113176650.540 7  88189591.097 9
  84515023.091 9  21536803.02349
  22099781.117 6  22099787.031 9                 116135061.092 6  90494919.480 9
                  22099786.80148
  23033866.125 6                                 121043732.387 6  94319818.96547
                  23033871.59047
  23990792.797 5  23990799.676 8                 126072591.457 5  98238322.707 8
                  23990799.79747
  20318598.016 7                                 106774955.770 7  83201272.08149
                  20318602.58649
  22975248.398 6                                 120735752.469 6  94079860.50947
                  22975255.02047
  21802863.500 6                                 114574879.520 6  89279094.79548
                  21802868.84848
  22207827.578 6  22207835.871 9  22207837.516 9 116702918.882 6  90937379.051 9
  87148326.329 9  22207835.65648
  22398056.492 6  22398065.836 9  22398068.203 9 117702573.543 6  91716336.832 9
  87894831.945 9  22398065.67648
  23935368.000 4  23935374.426 8                 125780998.190 4  98011354.677 8
                  23935374.48846
  23053874.781 6  23053883.145 9  23053883.852 9 121148886.035 6  94401767.187 9
  90468364.811 9  23053882.64547
 16 04 20 00 02 15.0000000  0 11G10G12G14G15G18G20G21G24G25G31G32   
  21534506.875 7  21534513.957 9  21534514.285 9 113164624.380 7  88180220.063 9
  84506042.519 9  21534514.45749
  22098716.516 6  22098722.297 9                 116129466.492 6  90490560.056 9
                  22098722.24248
  23032842.461 6                                 121038353.721 6  94315627.78847
                  23032848.34047
  23992523.063 5  23992530.012 8                 126081683.437 5  98245407.338 8
                  23992530.08647
  20317791.617 7                                 106770718.189 7  83197970.06949
                  20317795.88749
  22977883.445 6                                 120749595.847 6  94090647.54447
                  22977889.35247
  21804774.648 6                                 114584920.128 6  89286918.63548
                  21804779.56648
  22210589.516 6  22210598.348 9  22210600.465 9 116717435.591 6  90948690.768 9
  87159166.722 9  22210598.31348
  22395505.664 6  22395514.867 9  22395516.930 9 117689167.174 6  91705890.311 9
  87884820.701 9  22395514.75448
  23932245.930 5  23932251.770 8                 125764588.584 5  97998567.978 8
                  23932251.56646
  23052600.672 6  23052608.430 9  23052609.574 9 121142189.578 6  94396549.164 9
  90463364.211 9  23052608.42647
 16 04 20 00 02 20.0000000  0 11G10G12G14G15G18G20G21G24G25G31G32   
  21532219.656 7  21532227.211 9  21532227.301 9 113152604.247 7  88170853.721 9
  84497066.446 9  21532227.47349
  22097654.172 6  22097660.242 9                 116123885.074 6  90486210.891 9
                  22097660.19548
  23031819.133 6                                 121032976.129 6  94311437.45147
                  23031825.17247
  23994253.547 5  23994259.539 8                 126090775.100 5  98252491.738 8
                  23994259.94547
  20316987.266 7                                 106766491.399 7  83194676.46049
                  20316991.84049
  22980519.125 6                                 120763446.765 6  94101440.45447
                  22980525.19947
  21806686.891 6                                 114594970.045 6  89294749.74548
                  21806692.03948
  22213353.125 6  22213361.531 9  22213363.516 9 116731957.541 6  90960006.575 9
  87170011.034 9  22213361.59848
  22392955.711 6  22392964.848 9  22392966.637 9 117675767.041 6  91695448.663 9
  87874814.107 9  22392964.93048
  23929124.344 5  23929130.301 8                 125748185.540 5  97985786.382 8
                  23929130.25846
  23051326.484 6  23051334.633 9  23051335.555 9 121135494.021 6  94391331.844 9
  90458364.276 9  23051334.40647
 16 04 20 00 02 25.0000000  0 11G10G12G14G15G18G20G21G24G25G31G32   
  21529933.516 8  21529940.461 9  21529940.770 9 113140590.072 8  88161492.026 9
  84488094.814 9  21529941.05949
  22096594.656 6  22096601.008 9                 116118316.746 6  90481871.933 9
                  22096601.02748
  23030795.508 6                                 121027599.513 6  94307247.88447
                  23030802.05947
  23995984.117 6  23995990.305 8                 126099866.317 6  98259575.792 8
                  23995989.99647
  20316185.094 7                                 106762275.323 7  83191391.20849
                  20316189.45349
  22983155.938 6                                 120777305.169 6  94112239.19747
                  22983162.36347
  21808601.242 6                                 114605029.163 6  89302588.00448
                  21808606.06648
  22216117.391 6  22216126.023 9  22216127.660 9 116746484.638 6  90971326.387 9
  87180859.182 9  22216125.74248
  22390407.336 6  22390415.980 9  22390417.848 9 117662373.086 6  91685011.808 9
  87864812.122 9  22390416.08248
  23926003.828 5  23926010.371 8                 125731788.940 5  97973009.810 8
                  23926010.27046
  23050052.898 6  23050061.051 9  23050061.996 9 121128799.229 6  94386115.120 9
  90453364.918 9  23050060.49647
 16 04 20 00 02 30.0000000  0 11G10G12G14G15G18G20G21G24G25G31G32   
  21527648.406 7  21527655.617 9  21527655.914 9 113128582.290 7  88152135.315 9
  84479127.968 9  21527655.85249
  22095537.656 6  22095544.230 9                 116112762.000 6  90477543.559 9
                  22095543.74248
  23029773.547 6                                 121022224.352 6  94303059.45147
                  23029778.94147
  23997713.484 5  23997719.699 8                 126108957.560 5  98266659.884 8
                  23997720.18047
  20315384.922 7                                 106758070.405 7  83188114.64349
                  20315389.36749
  22985795.031 6                                 120791171.445 6  94123044.06747
                  22985800.93847
  21810516.727 6                                 114615097.911 6  89310433.78148
                  21810521.80548
  22218883.680 6  22218891.309 9  22218893.020 9 116761017.231 6  90982650.480 9
  87191711.439 9  22218891.33648
  22387859.531 6  22387868.164 9  22387869.941 9 117648985.778 6  91674580.149 9
  87854815.113 9  22387868.00048
  23922885.313 5  23922891.734 8                 125715399.227 5  97960238.609 8
                  23922891.07846
  23048778.898 6  23048786.988 9  23048787.973 9 121122105.636 6  94380899.330 9
  90448366.453 9  23048786.64847
 16 04 20 00 02 35.0000000  0 11G10G12G14G15G18G20G21G24G25G31G32   
  21525364.328 7  21525371.730 9  21525372.094 9 113116580.312 7  88142783.127 9
  84470165.451 9  21525372.20749
  22094483.258 6  22094489.012 9                 116107220.111 6  90473225.216 9
                  22094489.30948
  23028750.734 6                                 121016849.967 6  94298871.61447
                  23028756.43447
  23999443.234 5  23999450.059 8                 126118048.206 5  98273743.493 8
                  23999450.16446
  20314586.547 7                                 106753876.058 7  83184846.32049
                  20314590.78149
  22988434.516 6                                 120805044.913 6  94133854.55347
                  22988440.50847
  21812434.734 7                                 114625175.569 7  89318286.49048
                  21812439.69148
  22221649.469 6  22221657.102 9  22221659.281 9 116775554.681 6  90993978.351 9
  87202567.320 9  22221657.36748
  22385312.773 6  22385322.258 9  22385324.594 9 117635604.393 6  91664153.091 9
  87844822.512 9  22385322.06647
  23919766.836 5  23919774.152 8                 125699015.742 5  97947472.256 8
                  23919773.46546
  23047505.281 6  23047513.051 9  23047513.996 9 121115412.580 6  94375683.962 9
  90443368.393 9  23047512.96547
 16 04 20 00 02 40.0000000  0 11G10G12G14G15G18G20G21G24G25G31G32   
  21523081.688 7  21523089.043 9  21523089.469 9 113104584.388 7  88133435.646 9
  84461207.455 9  21523089.46549
  22093431.180 6  22093437.063 9                 116101691.457 6  90468917.175 9
                  22093437.00448
  23027727.648 6                                 121011476.668 6  94294684.62647
                  23027733.93847
  24001173.273 5  24001179.395 8                 126127138.640 5  98280826.935 8
                  24001179.27347
  20313790.336 7                                 106749692.525 7  83181586.42049
                  20313795.01249
  22991076.102 6                                 120818925.893 6  94144670.89647
                  22991082.09047
  21814354.266 6                                 114635262.505 6  89326146.44248
                  21814359.11348
  22224416.992 6  22224425.020 9  22224426.957 9 116790097.343 6  91005310.292 9
  87213427.100 9  22224424.92248
  22382768.039 6  22382776.664 9  22382779.207 9 117622229.386 6  91653731.003 9
  87834834.686 9  22382776.56348
  23916650.656 4  23916657.684 8                 125682638.828 4  97934711.015 8
                  23916656.98446
  23046231.953 6  23046239.715 9  23046240.383 9 121108720.401 6  94370469.273 9
  90438370.981 9  23046239.52747
 16 04 20 00 02 45.0000000  0 11G10G12G14G15G18G20G21G24G25G31G32   
  21520800.211 7  21520807.012 9  21520807.504 9 113092594.691 7  88124093.026 9
  84452254.108 9  21520807.61749
  22092381.992 6  22092387.352 9                 116096176.185 6  90464619.560 9
                  22092387.22748
  23026705.445 6                                 121006104.522 6  94290498.54647
                  23026711.74647
  24002903.031 5  24002909.418 8                 126136228.828 5  98287910.198 8
                  24002908.96946
  20312996.531 7                                 106745519.942 7  83178335.05249
                  20313000.68049
  22993718.813 6                                 120832814.529 6  94155493.19847
                  22993724.64847
  21816275.117 6                                 114645358.769 6  89334013.65648
                  21816280.20748
  22227184.938 6  22227193.418 9  22227195.465 9 116804645.294 6  91016646.363 9
  87224290.819 9  22227193.43448
  22380224.094 6  22380233.238 9  22380235.340 9 117608860.821 6  91643313.944 9
  87824851.668 9  22380232.87148
  23913536.227 5  23913541.660 8                 125666268.632 5  97921955.010 8
                  23913541.32046
  23044958.508 6  23044966.813 9  23044967.316 9 121102029.222 6  94365255.367 9
  90433374.321 9  23044966.28547
 16 04 20 00 02 50.0000000  0 11G10G12G14G15G18G20G21G24G25G31G32   
  21518519.758 7  21518526.832 9  21518527.215 9 113080611.120 7  88114755.182 9
  84443305.339 9  21518527.44549
  22091334.672 6  22091340.391 9                 116090674.116 6  90460332.232 9
                  22091340.16848
  23025683.695 6                                 121000733.474 6  94286313.29847
                  23025688.86347
  24004632.820 5  24004638.816 8                 126145318.725 5  98294993.232 8
                  24004638.96547
  20312204.523 7                                 106741358.265 7  83175092.18349
                  20312208.77749
  22996363.125 5                                 120846710.666 5  94166321.34047
                  22996369.49247
  21818198.734 6                                 114655464.200 6  89341888.00848
                  21818203.96548
  22229954.570 6  22229962.871 9  22229964.797 9 116819198.464 6  91027986.484 9
  87235158.442 9  22229962.58648
  22377681.523 6  22377690.512 9  22377692.359 9 117595498.601 6  91632901.819 9
  87814873.392 9  22377689.89148
  23910421.688 4  23910428.449 8                 125649905.001 4  97909204.127 8
                  23910427.59046
  23043685.336 6  23043693.172 9  23043694.281 9 121095338.894 6  94360042.116 9
  90428378.297 9  23043693.13347
 16 04 20 00 02 55.0000000  0 11G10G12G14G15G18G20G21G24G25G31G32   
  21516240.422 7  21516247.602 9  21516247.883 9 113068633.542 7  88105422.005 9
  84434361.043 9  21516248.11349
  22090290.094 6  22090295.891 9                 116085185.178 6  90456055.128 9
                  22090295.55148
  23024661.266 6                                 120995363.359 6  94282128.79847
                  23024666.95347
  24006362.234 5  24006368.152 8                 126154408.184 5  98302075.909 8
                  24006368.87147
  20311414.789 7                                 106737207.294 7  83171857.65949
                  20311418.80549
  22999009.055 6                                 120860614.208 6  94177155.25147
                  22999015.64847
  21820123.000 6                                 114665578.753 6  89349769.47348
                  21820128.17648
  22232724.828 6  22232733.238 9  22232734.906 9 116833756.776 6  91039330.629 9
  87246029.909 9  22232732.93048
  22375139.648 6  22375148.352 9  22375150.398 9 117582142.634 6  91622494.576 9
  87804899.773 9  22375148.51648
  23907309.539 4  23907315.988 8                 125633547.836 4  97896458.281 8
                  23907315.50046
  23042412.031 6  23042420.449 9  23042421.250 9 121088649.331 6  94354829.473 9
  90423382.841 9  23042420.27747
 16 04 20 00 03 00.0000000  0 11G10G12G14G15G18G20G21G24G25G31G32   
  21513962.094 7  21513969.719 9  21513970.063 9 113056662.138 7  88096093.639 9
  84425421.360 9  21513970.11749
  22089248.352 6  22089253.938 9                 116079709.522 6  90451788.381 9
                  22089253.55148
  23023639.375 6                                 120989994.316 6  94277945.12147
                  23023645.54347
  24008091.070 5  24008097.445 8                 126163497.369 5  98309158.383 8
                  24008097.74646
  20310626.797 7                                 106733067.213 7  83168631.61249
                  20310630.97349
  23001656.375 6                                 120874525.265 6  94187995.01947
                  23001662.16847
  21822049.367 6                                 114675702.543 6  89357658.13948
                  21822054.93048
  22235496.195 6  22235504.250 9  22235506.484 9 116848320.203 6  91050678.736 9
  87256905.184 9  22235504.27348
  22372599.594 6  22372608.363 9  22372610.379 9 117568793.046 6  91612092.302 9
  87794930.929 9  22372608.14548
  23904198.141 5  23904204.398 8                 125617197.297 5  97883717.608 8
                  23904204.25446
  23041139.633 6  23041148.086 9  23041148.762 9 121081960.605 6  94349617.475 9
  90418388.010 9  23041148.08247
 16 04 20 00 03 05.0000000  0 11G10G12G14G15G18G20G21G24G25G31G32   
  21511685.508 7  21511692.703 9  21511693.035 9 113044696.793 7  88086769.993 9
  84416486.196 9  21511693.20749
  22088208.820 6  22088214.520 9                 116074247.048 6  90447531.913 9
                  22088214.24248
  23022618.320 6                                 120984626.266 6  94273762.23547
                  23022624.13747
  24009821.547 5  24009827.203 8                 126172586.214 5  98316240.601 8
                  24009827.02046
  20309841.375 7                                 106728937.914 7  83165413.97249
                  20309845.22349
  23004305.250 6                                 120888443.741 6  94198840.58247
                  23004310.66047
  21823977.836 6                                 114685835.442 6  89365553.89948
                  21823983.27748
  22238269.141 6  22238276.910 9  22238279.066 9 116862888.729 6  91062030.833 9
  87267784.269 9  22238276.79748
  22370060.297 6  22370069.289 9  22370071.563 9 117555449.787 6  91601694.953 9
  87784966.804 9  22370068.97748
  23901087.680 4  23901094.191 8                 125600853.326 4  97870982.037 8
                  23901094.14146
  23039866.672 6  23039875.117 9  23039875.563 9 121075272.645 6  94344406.079 9
  90413393.750 9  23039874.88347
 16 04 20 00 03 10.0000000  0 11G10G12G14G15G18G20G21G24G25G31G32   
  21509409.758 7  21509416.879 9  21509417.098 9 113032737.832 7  88077451.316 9
  84407555.801 9  21509417.09449
  22087172.117 6  22087177.465 9                 116068798.104 6  90443285.975 9
                  22087177.43448
  23021597.195 6                                 120979259.479 6  94269580.30947
                  23021602.82447
  24011551.188 5  24011557.043 8                 126181674.973 5  98323322.759 8
                  24011556.54346
  20309057.344 7                                 106724819.718 7  83162204.98949
                  20309061.32449
  23006955.156 6                                 120902369.926 6  94209692.14747
                  23006960.67247
  21825908.125 6                                 114695977.712 6  89373456.96348
                  21825912.79348
  22241041.859 6  22241050.281 9  22241052.066 9 116877462.619 6  91073387.113 9
  87278667.369 9  22241049.73848
  22367522.484 6  22367531.629 9  22367533.879 9 117542113.117 6  91591302.748 9
  87775007.608 9  22367531.11748
  23897979.055 5  23897985.051 8                 125584516.161 5  97858251.787 8
                  23897985.25846
  23038594.531 6  23038602.359 9  23038603.125 9 121068585.766 6  94339195.521 9
  90408400.303 9  23038602.50447
 16 04 20 00 03 15.0000000  0 11G10G12G14G15G18G20G21G24G25G31G32   
  21507135.063 7  21507142.582 9  21507142.691 9 113020785.158 7  88068137.547 9
  84398630.107 9  21507142.74649
  22086137.117 6  22086143.660 9                 116063362.630 6  90439050.537 9
                  22086143.31648
  23020576.281 6                                 120973893.869 6  94265399.31147
                  23020581.91047
  24013280.344 5  24013286.922 8                 126190763.547 5  98330404.765 8
                  24013286.51647
  20308275.586 7                                 106720712.530 7  83159004.58149
                  20308279.75049
  23009607.133 6                                 120916303.731 6  94220549.65647
                  23009612.43447
  21827839.430 6                                 114706129.372 6  89381367.33448
                  21827845.04748
  22243816.164 6  22243824.574 9  22243826.641 9 116892041.796 6  91084747.506 9
  87289554.408 9  22243824.54748
  22364985.703 6  22364994.652 9  22364997.000 9 117528783.043 6  91580915.663 9
  87765053.328 9  22364994.12148
  23894871.500 5  23894877.711 8                 125568185.791 5  97845526.803 8
                  23894877.77046
  23037322.289 6  23037330.055 9  23037330.824 9 121061899.861 6  94333985.723 9
  90403407.578 9  23037329.96947
 16 04 20 00 03 20.0000000  0 11G10G12G14G15G18G20G21G24G25G31G32   
  21504861.695 7  21504869.133 9  21504869.426 9 113008838.690 7  88058828.607 9
  84389709.039 9  21504869.53949
  22085105.789 6  22085111.656 9                 116057940.446 6  90434825.462 9
                  22085111.41448
  23019555.063 6                                 120968529.289 6  94261219.11347
                  23019560.82447
  24015009.523 5  24015016.941 8                 126199851.843 5  98337486.530 8
                  24015016.45347
  20307496.172 7                                 106716616.208 7  83155812.63849
                  20307501.05149
  23012259.508 6                                 120930245.046 6  94231413.00147
                  23012265.63747
  21829773.297 6                                 114716290.154 6  89389284.82148
                  21829778.39848
  22246591.516 6  22246599.676 9  22246601.477 9 116906626.091 6  91096111.877 9
  87300445.268 9  22246599.38348
  22362450.664 6  22362459.320 9  22362461.406 9 117515459.407 6  91570533.618 9
  87755103.863 9  22362459.23048
  23891765.445 5  23891771.309 8                 125551862.071 5  97832807.023 8
                  23891771.57046
  23036049.758 6  23036057.871 9  23036058.793 9 121055214.785 6  94328776.576 9
  90398415.475 9  23036057.87947
 16 04 20 00 03 25.0000000  0 11G10G12G14G15G18G20G21G24G25G31G32   
  21502589.641 7  21502596.742 9  21502597.234 9 112996898.187 7  88049524.321 9
  84380792.429 9  21502597.11349
  22084076.227 6  22084082.012 9                 116052531.363 6  90430610.592 9
                  22084082.12548
  23018534.500 6                                 120963165.548 6  94257039.57547
                  23018540.27347
  24016739.500 5  24016745.969 8                 126208939.684 5  98344567.938 8
                  24016746.56647
  20306718.734 7                                 106712530.542 7  83152628.99849
                  20306722.90249
  23014913.977 6                                 120944193.632 6  94242282.01347
                  23014920.16447
  21831708.734 6                                 114726459.900 6  89397209.28648
                  21831713.88348
  22249368.344 6  22249376.066 9  22249378.141 9 116921215.185 6  91107479.992 9
  87311339.711 9  22249375.87148
  22359915.914 6  22359925.266 9  22359927.219 9 117502141.989 6  91560156.402 9
  87745159.031 9  22359925.39548
  23888660.141 5  23888665.816 8                 125535544.817 5  97820092.282 8
                  23888665.83646
  23034778.180 6  23034786.086 9  23034786.902 9 121048530.325 6  94323567.912 9
  90393423.839 9  23034786.04747
 16 04 20 00 03 30.0000000  0 11G10G12G14G15G18G20G21G24G25G31G32   
  21500318.797 7  21500326.258 9  21500326.711 9 112984964.014 7  88040224.970 9
  84371880.546 9  21500326.77049
