     2.10           OBSERVATION DATA    G                   RINEX VERSION / TYPE
NetR9 5.43          SMO                 20200421 010343 UTC PGM / RUN BY / DATE 
gfzrnx-2.1.12       FILE PROCESSING     20250424 025058 UTC COMMENT             
INITIAL_RINEX_VERSION: 2.11                                 COMMENT             
HKTK                                                        MARKER NAME         
23018M001                                                   MARKER NUMBER       
SMO                 Lands Department HKSAR                  OBSERVER / AGENCY   
5337K45547          TRIMBLE NETR9       5.43                REC # / TYPE / VERS 
5338354860          TRM59800.00     SCIS                    ANT # / TYPE        
        0.0083        0.0000        0.0000                  ANTENNA: DELTA H/E/N
 -2418092.3728  5374658.3417  2430429.1904                  APPROX POSITION XYZ 
    10    C1    C2    C5    L1    L2    L5    P2    S1    S2# / TYPES OF OBSERV 
          S5                                                # / TYPES OF OBSERV 
     1     1                                                WAVELENGTH FACT L1/2
L2C CARRIER PHASE MEASUREMENTS: PHASE SHIFTS REMOVED        COMMENT             
L2C PHASE MATCHES L2 P PHASE                                COMMENT             
GLONASS C/A & P PHASE MATCH: PHASE SHIFTS REMOVED           COMMENT             
    18                                                      LEAP SECONDS        
                                                            COMMENT             
EPOCH COUNT     m00  m10  m20  m30  m40  m50                COMMENT             
               ---- ---- ---- ---- ---- ----                COMMENT             
          A     120  120  120  120  120  120                COMMENT             
GFZRNX.NUM_EPOCHS: 720                                      COMMENT
    11                                                      # OF SATELLITES     
   G03   720   720   720   720   720   720   720   720   720PRN / # OF OBS      
         720                                                PRN / # OF OBS      
   G04   195   195   195   193   195   195   195   195   195PRN / # OF OBS      
         195                                                PRN / # OF OBS      
   G10   324   324   324   313   324   324   319   324   324PRN / # OF OBS      
         324                                                PRN / # OF OBS      
   G14   720               720   720         720   720   720PRN / # OF OBS      
                                                            PRN / # OF OBS      
   G16   720               720   720         720   720   720PRN / # OF OBS      
                                                            PRN / # OF OBS      
   G22   720               720   720         720   720   720PRN / # OF OBS      
                                                            PRN / # OF OBS      
   G26   720   720   720   720   720   720   720   720   720PRN / # OF OBS      
         720                                                PRN / # OF OBS      
   G27   704   704   704   683   704   704   704   704   704PRN / # OF OBS      
         704                                                PRN / # OF OBS      
   G29   720   720         716   720         720   720   720PRN / # OF OBS      
                                                            PRN / # OF OBS      
   G31   720   720         720   720         720   720   720PRN / # OF OBS      
                                                            PRN / # OF OBS      
   G32   720   720   720   720   720   720   720   720   720PRN / # OF OBS      
         720                                                PRN / # OF OBS      
     5.000                                                  INTERVAL            
  2020     4    21     0     0    0.0000000     GPS         TIME OF FIRST OBS   
  2020     4    21     0    59   55.0000000     GPS         TIME OF LAST OBS    
                                                            END OF HEADER      
 20 04 21 00 00 00.0000000  0  9G03G10G14G16G22G26G29G31G32          0.000000000
  23737912.11705  23737920.27706  23737921.61708 124743545.18305  97202808.77348
  93152695.70708  23737919.84048        36.800          31.600          45.500  
  24387257.89105  24387267.35505  24387266.54307 128155959.01205  99861756.67245
  95700844.65707  24387266.85245        37.100          19.900          42.500  
  20609387.59408                                 108303073.19708  84391997.32449
                  20609391.57849        47.000          38.500                  
  21698089.13307                                 114024254.11507  88850067.45348
                  21698093.36748        44.900          31.900                  
  22974615.79707                                 120732403.85307  94077205.51847
                  22974617.66447        43.200          27.900                  
  20187864.54709  20187872.00009  20187871.47709 106087914.21709  82665947.38849
  79221524.93909  20187872.25849        49.400          54.000          54.400  
  23517612.50006  23517618.10206                 123585869.99606  96300706.55546
                  23517618.38346        39.000          22.900                  
  21410230.10208  21410234.48008                 112511510.11508  87671320.74249
                  21410234.33249        46.400          47.200                  
  20973311.42209  20973318.70709  20973317.86709 110215549.38609  85882249.54149
  82303819.79709  20973318.27749        50.300          52.900          51.700  
 20 04 21 00 00 05.0000000  0  9G03G10G14G16G22G26G29G31G32          0.000000000
  23736177.92205  23736185.87106  23736187.60208 124734432.10905  97195707.68048
  93145890.48308  23736185.52348        37.200          32.400          45.400  
  24390624.48405  24390632.91805  24390632.27707 128173647.64805  99875540.04646
  95714053.66107  24390633.48446        37.600          20.100          42.200  
  20608951.72708                                 108300780.68508  84390210.95249
                  20608955.23849        46.800          38.600                  
  21695488.50807                                 114010587.03807  88839417.79348
                  21695492.64148        44.600          32.100                  
  22974100.11707                                 120729696.05407  94075095.53247
                  22974102.44147        43.200          29.400                  
  20187364.86709  20187372.10909  20187371.66809 106085287.31909  82663900.45149
  79219563.28509  20187372.38749        49.400          53.900          54.400  
  23517984.94506  23517991.59006                 123587829.12606  96302233.16046
                  23517990.73446        39.300          23.000                  
  21410743.34408  21410747.88708                 112514207.01008  87673422.21649
                  21410747.54349        46.300          47.200                  
  20974473.57809  20974480.68409  20974479.88309 110221655.46309  85887007.51849
  82308379.51909  20974480.35549        50.300          52.900          51.800  
 20 04 21 00 00 10.0000000  0  9G03G10G14G16G22G26G29G31G32          0.000000000
  23734446.27305  23734454.23806  23734455.97308 124725331.92505  97188616.61748
  93139094.87708  23734454.08648        36.500          32.600          45.300  
  24393990.23405  24393998.48405  24393997.91807 128191334.60305  99889322.07646
  95727261.47407  24393999.16046        37.500          20.100          42.100  
  20608517.10208                                 108298498.53508  84388432.65049
                  20608521.06649        47.000          38.700                  
  21692890.07008                                 113996931.67108  88828777.24948
                  21692894.14148        45.200          32.100                  
  22973587.36707                                 120727001.46707  94072995.85047
                  22973589.76247        43.100          28.100                  
  20186867.67209  20186874.90209  20186874.47709 106082674.69609  82661864.63849
  79217612.31309  20186875.15649        49.400          53.800          54.400  
  23518361.16406  23518366.92206                 123589802.41606  96303770.77146
                  23518366.57046        39.400          22.500                  
  21411257.34408  21411261.29708                 112516905.48208  87675524.91949
                  21411261.10949        47.000          47.200                  
  20975637.66409  20975644.72709  20975644.03909 110227773.61509  85891774.91349
  82312948.26609  20975644.74249        49.800          52.800          51.500  
 20 04 21 00 00 15.0000000  0  9G03G10G14G16G22G26G29G31G32          0.000000000
  23732717.28105  23732725.11706  23732726.47308 124716244.46505  97181535.48048
  93132308.76808  23732724.40648        36.800          31.800          45.700  
  24397356.35206  24397364.24605  24397363.47307 128209019.78406  99903102.68145
  95740467.89707  24397364.80145        38.100          19.900          42.100  
  20608084.96108                                 108296226.60608  84386662.31349
                  20608088.63349        47.600          38.600                  
  21690293.47708                                 113983287.79408  88818145.64748
                  21690297.76648        45.000          32.800                  
  22973076.65607                                 120724319.98107  94070906.38247
                  22973079.43847        42.800          27.700                  
  20186373.37509  20186380.45309  20186380.01209 106080076.19809  82659839.83749
  79215671.87309  20186380.62149        49.500          53.900          54.500  
  23518739.17206  23518745.00006                 123591789.74306  96305319.34346
                  23518744.94146        39.500          22.800                  
  21411770.55508  21411775.27308                 112519605.27908  87677628.66049
                  21411774.89849        46.700          47.300                  
  20976803.87509  20976811.31609  20976810.60909 110233903.68809  85896551.58449
  82317525.91709  20976811.04749        50.200          52.800          51.600  
 20 04 21 00 00 20.0000000  0  9G03G10G14G16G22G26G29G31G32          0.000000000
  23730990.71105  23730998.11306  23730999.67208 124707169.73205  97174464.26648
  93125532.22308  23730997.63748        36.800          32.600          45.600  
  24400720.78905  24400729.14105  24400728.53907 128226703.18705  99916881.95245
  95753673.02207  24400729.52045        37.900          19.300          41.500  
  20607654.28108                                 108293964.91508  84384899.95149
                  20607658.10549        47.900          38.900                  
  21687699.77307                                 113969655.48407  88807523.06548
                  21687703.78548        44.900          32.300                  
  22972569.16407                                 120721651.64707  94068827.16247
                  22972571.57847        43.000          28.900                  
  20185881.53109  20185888.76209  20185888.18809 106077491.86309  82657826.06649
  79213742.01209  20185888.83249        49.400          53.800          54.600  
  23519119.77306  23519125.89106                 123593791.18106  96306878.89546
                  23519126.02746        39.500          22.600                  
  21412284.66408  21412289.07808                 112522306.48608  87679733.49249
                  21412288.85549        46.400          47.100                  
  20977973.02309  20977980.38709  20977979.37509 110240045.74909  85901337.60249
  82322112.51409  20977979.72349        50.000          52.800          52.100  
 20 04 21 00 00 25.0000000  0  9G03G10G14G16G22G26G29G31G32          0.000000000
  23729266.30505  23729273.70306  23729275.20308 124698107.85105  97167403.05848
  93118765.22508  23729273.19948        36.800          31.700          45.700  
  24404085.89805  24404093.87505  24404093.19507 128244384.80805  99930659.85746
  95766876.82007  24404094.01246        37.900          20.600          41.400  
  20607225.87508                                 108291713.54308  84383145.64349
                  20607229.79749        47.700          39.000                  
  21685107.19507                                 113956034.77107  88796909.51948
                  21685111.66048        44.900          32.800                  
  22972064.33607                                 120718996.52907  94066758.24347
                  22972066.32447        43.200          29.300                  
  20185392.17209  20185399.58209  20185399.17609 106074921.71509  82655823.35849
  79211822.74809  20185399.68449        49.500          53.800          54.800  
  23519503.35206  23519508.89806                 123595806.69406  96308449.42746
                  23519509.23046        39.600          23.600                  
  21412798.92208  21412803.24208                 112525009.10508  87681839.43049
                  21412803.12949        46.300          47.300                  
  20979144.33609  20979151.51209  20979150.46109 110246199.81209  85906132.97649
  82326708.07709  20979150.80949        50.500          52.900          52.000  
 20 04 21 00 00 30.0000000  0  9G03G10G14G16G22G26G29G31G32          0.000000000
  23727543.60905  23727551.92206  23727553.31308 124689058.80605  97160351.84448
  93112007.80508  23727551.61748        36.900          32.800          45.400  
  24407450.39806  24407458.61705  24407457.60207 128262064.66806  99944436.31546
  95780079.26607  24407458.35946        38.100          20.600          41.600  
  20606799.34408                                 108289472.47208  84381399.34949
                  20606803.31349        47.000          38.600                  
  21682518.08607                                 113942425.64407  88786305.01048
                  21682521.87148        44.500          32.700                  
  22971561.50007                                 120716354.56407  94064699.55547
                  22971563.88747        42.700          28.900                  
  20184905.91409  20184913.63309  20184912.74209 106072365.75709  82653831.69849
  79209914.07009  20184913.39149        49.200          53.800          54.500  
  23519889.05506  23519895.73006                 123597836.31906  96310030.97346
                  23519895.32446        39.500          23.000                  
  21413313.89808  21413318.18008                 112527713.14908  87683946.47249
                  21413317.80949        46.600          47.200                  
  20980317.50809  20980324.59809  20980323.84009 110252365.84709  85910937.67749
  82331312.58509  20980324.20349        50.400          52.800          52.000  
 20 04 21 00 00 35.0000000  0  9G03G10G14G16G22G26G29G31G32          0.000000000
  23725823.61705  23725832.26206  23725833.74208 124680022.55305  97153310.61548
  93105259.96708  23725831.76648        36.900          32.000          45.300  
  24410813.39806  24410822.55505  24410821.50007 128279742.70506  99958211.40746
  95793280.41207  24410822.21146        38.100          20.900          42.000  
  20606375.01608                                 108287241.68108  84379661.07149
                  20606378.79749        47.700          38.700                  
  21679930.41407                                 113928828.12807  88775709.54448
                  21679934.53148        44.700          33.000                  
  22971060.98407                                 120713725.76707  94062651.12847
                  22971063.43047        42.800          29.500                  
  20184422.10909  20184429.38709  20184429.10209 106069823.95209  82651851.07149
  79208015.97409  20184429.70749        49.300          53.900          54.500  
  23520278.58606  23520284.29705                 123599880.03806  96311623.46646
                  23520284.42646        39.400          22.200                  
  21413828.18808  21413832.94507                 112530418.60308  87686054.61549
                  21413832.59449        46.600          47.100                  
  20981492.97709  20981500.32009  20981499.50409 110258543.91109  85915751.75049
  82335926.07509  20981499.86749        49.900          52.800          51.800  
 20 04 21 00 00 40.0000000  0  9G03G10G14G16G22G26G29G31G32          0.000000000
  23724107.76605  23724115.26206  23724116.35508 124670999.26405  97146279.47848
  93098521.78308  23724114.45348        36.800          32.700          45.200  
  24414177.44505  24414186.05505  24414185.58207 128297419.00705  99971985.12646
  95806480.23307  24414186.02046        37.900          20.400          41.700  
  20605952.36708                                 108285021.26708  84377930.87449
                  20605956.09449        47.000          38.800                  
  21677345.06307                                 113915242.35107  88765123.22348
                  21677349.04748        44.900          32.300                  
  22970563.20307                                 120711110.21007  94060613.04547
                  22970565.91447        43.300          27.600                  
  20183941.23409  20183948.61309  20183948.06609 106067296.40009  82649881.54949
  79206128.51609  20183948.74649        49.500          53.900          54.600  
  23520670.45306  23520676.56606                 123601937.96406  96313227.03546
                  23520675.96146        39.400          24.300                  
  21414343.48408  21414348.11707                 112533125.55608  87688163.93049
                  21414347.73849        46.800          47.200                  
  20982670.98409  20982678.25409  20982677.42609 110264734.04409  85920575.22849
  82340548.56309  20982677.73049        50.800          52.800          51.600  
 20 04 21 00 00 45.0000000  0  9G03G10G14G16G22G26G29G31G32          0.000000000
  23722393.09405  23722400.05106  23722401.77008 124661988.67105  97139258.23048
  93091793.07708  23722399.81648        36.200          32.400          45.500  
  24417540.43805  24417548.94105  24417548.64807 128315093.43705  99985757.40446
  95819678.60507  24417549.69946        37.400          20.100          42.100  
  20605531.86708                                 108282811.05008  84376208.62849
                  20605535.79749        47.200          38.400                  
  21674762.09407                                 113901668.06307  88754545.85848
                  21674765.98448        44.500          31.800                  
  22970068.41407                                 120708507.73207  94058585.13447
                  22970070.51647        43.200          28.900                  
  20183463.10909  20183470.27709  20183469.78109 106064782.92709  82647923.00349
  79204251.56109  20183470.40649        49.200          53.700          54.500  
  23521063.66406  23521070.11305                 123604009.89006  96314841.53646
                  23521070.39146        39.400          22.600                  
  21414859.05508  21414863.66007                 112535833.77608  87690274.23149
                  21414863.04749        46.600          47.300                  
  20983851.35909  20983858.02009  20983857.69509 110270936.05709  85925407.96349
  82345179.93009  20983858.16449        49.900          52.600          51.600  
 20 04 21 00 00 50.0000000  0  9G03G10G14G16G22G26G29G31G32          0.000000000
  23720680.75005  23720688.57806  23720689.63308 124652990.87105  97132246.95748
  93085073.96508  23720687.70348        36.700          32.700          45.500  
  24420903.78105  24420912.25005  24420911.66807 128332765.95005  99999528.15845
  95832875.60507  24420912.58645        37.200          19.900          41.700  
  20605113.06308                                 108280611.12708  84374494.39049
                  20605117.08249        47.600          38.700                  
  21672180.83607                                 113888105.37907  88743977.53248
                  21672185.18048        44.700          32.400                  
  22969576.01607                                 120705918.39407  94056567.46347
                  22969577.68047        43.400          28.700                  
  20182987.19509  20182994.66009  20182994.17609 106062283.56909  82645975.44749
  79202385.16809  20182994.76649        49.300          53.900          54.500  
  23521461.53906  23521466.98805                 123606095.91706  96316466.99446
                  23521467.58246        39.900          22.600                  
  21415374.41408  21415378.81307                 112538543.37408  87692385.60449
                  21415378.75449        46.700          47.200                  
  20985033.75009  20985040.96109  20985040.16409 110277150.04809  85930250.02549
  82349820.24909  20985040.60549        50.500          52.800          51.700  
 20 04 21 00 00 55.0000000  0  9G03G10G14G16G22G26G29G31G32          0.000000000
  23718970.95305  23718978.10506  23718979.90208 124644005.96605  97125245.74448
  93078364.46208  23718978.18448        37.000          32.500          45.600  
  24424266.82005  24424274.71905  24424274.22707 128350436.62405 100013297.50046
  95846071.26507  24424275.37946        37.600          20.600          41.400  
  20604696.50008                                 108278421.61408  84372788.27549
                  20604700.24649        47.200          38.400                  
  21669602.43007                                 113874554.39507  88733418.33248
                  21669606.43448        44.900          32.100                  
  22969084.91407                                 120703342.25707  94054560.06947
                  22969087.64547        42.900          29.300                  
  20182514.35909  20182521.72709  20182521.27309 106059798.45109  82644038.99349
  79200529.38909  20182521.96949        49.700          53.800          54.700  
  23521861.00006  23521866.53105                 123608196.12106  96318103.52346
                  23521866.89846        39.800          23.300                  
  21415890.79708  21415894.92207                 112541254.42608  87694498.11249
                  21415894.70749        46.700          47.500                  
  20986218.59409  20986225.63709  20986224.92209 110283376.07309  85935101.47449
  82354469.55909  20986225.18449        50.000          52.700          51.500  
 20 04 21 00 01 00.0000000  0  9G03G10G14G16G22G26G29G31G32          0.000000000
  23717263.52305  23717271.05906  23717272.60208 124635033.89205  97118254.50948
  93071664.53308  23717270.58648        37.000          31.900          45.600  
  24427627.99205  24427636.78505  24427636.70707 128368105.48905 100027065.46545
  95859265.48707  24427637.66445        37.200          19.000          41.900  
  20604281.92208                                 108276242.40908  84371090.19749
                  20604285.70349        47.900          38.500                  
  21667025.88307                                 113861014.97707  88722868.13448
                  21667030.18848        44.700          32.400                  
  22968597.67207                                 120700779.22907  94052562.92547
                  22968599.71147        43.100          28.200                  
  20182044.18809  20182051.51609  20182051.10209 106057327.42609  82642113.51949
  79198684.15009  20182051.73049        49.400          53.900          54.700  
  23522263.21906  23522269.10506                 123610310.41406  96319751.02846
                  23522269.24646        39.700          23.800                  
  21416406.69508  21416411.02007                 112543966.83908  87696611.68249
                  21416410.82449        46.500          47.300                  
  20987405.58609  20987412.74209  20987411.98809 110289614.06009  85939962.23749
  82359127.79209  20987412.28949        50.600          52.800          51.700  
 20 04 21 00 01 05.0000000  0  9G03G10G14G16G22G26G29G31G32          0.000000000
  23715557.79705  23715566.84806  23715567.76608 124626074.71805  97111273.32948
  93064974.22008  23715565.70748        37.200          32.500          45.300  
  24430990.24205  24430999.02705  24430998.50007 128385772.47505 100040831.90445
  95872458.34607  24430999.49645        37.100          19.000          41.300  
  20603869.15608                                 108274073.53808  84369400.16249
                  20603872.94549        47.700          38.700                  
  21664451.25007                                 113847487.24307  88712327.04248
                  21664455.93048        44.900          32.700                  
  22968112.65607                                 120698229.37807  94050576.01547
                  22968114.70347        43.400          28.600                  
  20181576.82809  20181584.32009  20181583.48809 106054870.58609  82640199.09749
  79196849.49909  20181584.09049        50.000          53.900          54.600  
  23522668.63306  23522673.87105                 123612438.81106  96321409.50846
                  23522674.25846        39.900          23.900                  
  21416923.00008  21416927.28908                 112546680.69608  87698726.36749
                  21416927.34849        46.700          47.300                  
  20988595.11709  20988602.14108  20988601.44509 110295864.06609  85944832.36849
  82363794.98809  20988601.71949        50.000          52.900          51.400  
 20 04 21 00 01 10.0000000  0  9G03G10G14G16G22G26G29G31G32          0.000000000
  23713855.93005  23713863.98806  23713865.17608 124617128.34405  97104302.13048
  93058293.51008  23713863.58648        37.100          31.800          45.300  
  24434352.18005  24434360.53905  24434360.43407 128403437.59505 100054596.93845
  95885649.78807  24434360.87545        36.900          18.600          41.600  
  20603458.37508                                 108271914.99908  84367718.18549
                  20603462.18449        47.300          38.500                  
  21661879.81307                                 113833971.15107  88701795.02248
                  21661883.79748        44.800          32.600                  
  22967629.99207                                 120695692.68707  94048599.37247
                  22967631.85947        43.200          26.800                  
  20181112.14809  20181119.50809  20181118.69509 106052427.89409  82638295.69349
  79195025.40409  20181119.25049        49.900          53.600          54.500  
  23523076.30506  23523081.54306                 123614581.32606  96323079.00546
                  23523081.54746        39.900          24.800                  
  21417439.11708  21417444.33207                 112549395.91708  87700842.12249
                  21417443.93049        46.400          46.900                  
  20989786.50809  20989793.79309  20989793.02309 110302126.06509  85949711.84749
  82368471.15409  20989793.28149        50.400          52.400          51.600  
 20 04 21 00 01 15.0000000  0  9G03G10G14G16G22G26G29G31G32          0.000000000
  23712155.53905  23712163.84406  23712165.07408 124608194.93305  97097341.02848
  93051622.42608  23712163.64148        37.400          32.000          45.600  
  24437712.90605  24437721.53105  24437721.03107 128421100.78005 100068360.41745
  95898839.82807  24437722.25445        36.900          19.000          41.400  
  20603049.65608                                 108269766.87708  84366044.32149
                  20603053.43849        46.700          38.700                  
  21659309.77307                                 113820466.77907  88691272.12948
                  21659314.10248        44.800          32.400                  
  22967149.71907                                 120693169.15507  94046632.97647
                  22967151.80547        43.300          27.700                  
  20180649.78109  20180657.14509  20180656.64509 106049999.38809  82636403.35249
  79193211.91309  20180657.16449        49.300          53.800          54.400  
  23523486.60206  23523492.07805                 123616738.08606  96324759.60046
                  23523492.21146        40.000          23.000                  
  21417956.39108  21417961.12907                 112552112.56708  87702958.99149
                  21417960.88349        46.300          47.200                  
  20990980.55509  20990987.66809  20990986.93009 110308400.11309  85954600.71149
  82373156.31309  20990987.24649        50.300          52.700          51.800  
 20 04 21 00 01 20.0000000  0 10G03G10G14G16G22G26G27G29G31G32       0.000000000
  23710458.60205  23710466.19106  23710467.80108 124599274.30705  97090389.88848
  93044960.93308  23710466.15648        37.500          32.400          45.700  
  24441073.93005  24441082.60905  24441081.92606 128438761.99105 100082122.38546
  95912028.36106  24441083.18046        37.200          20.100          40.900  
  20602642.65608                                 108267629.05808  84364378.49249
                  20602646.63349        46.900          38.900                  
  21656742.01607                                 113806974.01007  88680758.29148
                  21656746.48448        44.900          33.100                  
  22966671.67207                                 120690658.72807  94044676.79947
                  22966674.07847        43.000          29.100                  
  20180190.16409  20180197.95309  20180197.12109 106047584.98009  82634522.00349
  79191408.94009  20180197.77749        49.300          53.900          54.500  
  25343026.71905  25343036.63304  25343036.03906 133178513.48805 103775495.99447
  99451512.55106  25343035.75447        35.300          27.200          40.500  
  23523899.76606  23523905.74606                 123618908.92006  96326451.15646
                  23523905.18846        40.100          22.800                  
  21418473.54708  21418478.22308                 112554830.53608  87705076.88049
                  21418478.07449        46.300          47.300                  
  20992176.84409  20992184.02009  20992183.11709 110314686.09609  85959498.87849
  82377850.38809  20992183.26649        50.800          52.800          51.500  
 20 04 21 00 01 25.0000000  0 10G03G10G14G16G22G26G27G29G31G32       0.000000000
  23708762.57805  23708771.37906  23708772.83608 124590366.59805  97083448.81748
  93038309.08408  23708770.69148        36.400          32.200          45.400  
  24444435.25005  24444443.41805  24444442.07807 128456421.32405 100095882.89846
  95925215.53307  24444443.64146        37.000          20.600          41.100  
  20602237.84408                                 108265501.62608  84362720.74849
                  20602241.87149        46.800          38.500                  
  21654177.10207                                 113793492.98807  88670253.60148
                  21654181.07848        44.600          32.300                  
  22966196.71907                                 120688161.48807  94042730.89047
                  22966198.97347        43.100          28.700                  
  20179733.78909  20179740.87909  20179740.39809 106045184.71909  82632651.66049
  79189616.53709  20179741.01649        49.300          53.900          54.400  
  25339866.66404  25339875.40604  25339875.42607 133161903.97504 103762553.51347
  99439109.35207  25339874.93847        34.700          26.900          41.100  
  23524315.29706  23524321.21105                 123621093.86306  96328153.70546
                  23524320.85246        40.100          22.900                  
  21418991.37508  21418995.71508                 112557549.92808  87707195.88549
                  21418995.71949        46.600          47.500                  
  20993375.10209  20993382.11309  20993381.61309 110320984.10409  85964406.41049
  82382553.44709  20993381.75449        50.200          52.700          51.400  
 20 04 21 00 01 30.0000000  0 10G03G10G14G16G22G26G27G29G31G32       0.000000000
  23707070.45305  23707077.89506  23707080.13708 124581471.78405  97076517.79048
  93031666.82808  23707078.21548        37.600          33.000          45.500  
  24447794.91405  24447803.75805  24447802.39807 128474078.75805 100109641.89845
  95938401.24707  24447803.67645        37.700          19.900          41.100  
  20601834.77308                                 108263384.57708  84361071.10249
                  20601838.94949        46.800          38.700                  
  21651613.60907                                 113780023.64607  88659758.00948
                  21651617.68848        44.700          32.400                  
  22965723.32007                                 120685677.35207  94040795.19147
                  22965726.20347        43.000          28.800                  
  20179279.66409  20179286.99609  20179286.37509 106042798.59509  82630792.34349
  79187834.68809  20179287.03149        49.400          53.900          54.500  
  25336704.31304  25336714.01605  25336713.50007 133145288.75704 103749606.58747
  99426701.86907  25336713.26647        34.300          26.500          41.100  
  23524734.00006  23524739.89805                 123623292.89006  96329867.21846
                  23524739.03546        40.000          24.800                  
  21419509.21108  21419513.77008                 112560270.64308  87709315.91849
                  21419513.42649        46.400          47.300                  
  20994576.00809  20994583.02009  20994582.40609 110327294.09609  85969323.28649
  82387265.45309  20994582.69549        50.000          52.800          51.800  
 20 04 21 00 01 35.0000000  0 10G03G10G14G16G22G26G27G29G31G32       0.000000000
  23705380.63305  23705388.52006  23705389.78908 124572589.81105  97069596.76548
  93025034.19608  23705387.86748        37.200          32.100          46.000  
  24451154.16406  24451163.73005  24451162.28907 128491734.24806 100123399.40446
  95951585.51007  24451163.55146        38.100          20.100          41.300  
  20601434.07808                                 108261277.90908  84359429.53349
                  20601438.10549        46.700          38.900                  
  21649053.00807                                 113766566.02007  88649271.54648
                  21649057.05548        44.700          32.100                  
  22965253.37507                                 120683206.37707  94038869.76347
                  22965255.96947        43.300          28.700                  
  20178828.12509  20178835.60209  20178834.84009 106040426.56409  82628944.00949
  79186063.37509  20178835.60249        49.500          53.900          54.700  
  25333542.38303  25333550.73404  25333550.83606                 103736646.10104
  99414290.10006  25333550.37546        32.500          23.900          40.800  
  23525155.03106  23525160.92205                 123625506.04606  96331591.75946
                  23525160.57046        39.900          23.000                  
  21420026.82808  21420031.57808                 112562992.71508  87711437.01749
                  21420031.45349        46.600          47.200                  
  20995778.91409  20995785.99609  20995785.45309 110333616.07109  85974249.48949
  82391986.40409  20995785.64549        50.000          52.700          51.600  
 20 04 21 00 01 40.0000000  0 10G03G10G14G16G22G26G27G29G31G32       0.000000000
  23703692.58605  23703700.12506  23703702.00408 124563720.78005  97062685.82548
  93018411.22308  23703700.29748        37.400          32.900          45.700  
  24454513.81305  24454522.49605  24454521.37107 128509387.74805 100137155.36146
  95964768.31807  24454523.01246        37.900          21.100          41.200  
  20601034.68808                                 108259181.67208  84357796.10749
                  20601039.17649        46.800          38.900                  
  21646494.05507                                 113753120.06507  88638794.17948
                  21646498.50448        44.900          31.900                  
  22964785.70307                                 120680748.57807  94036954.59347
                  22964788.30947        43.400          28.900                  
  20178379.57009  20178386.96509  20178386.15609 106038068.73409  82627106.73949
  79184302.65409  20178386.88749        49.300          53.900          54.400  
  25330377.71903  25330386.41004  25330386.93006 133112041.07503 103723699.29546
  99401874.06806  25330386.40246        32.400          22.900          40.700  
  23525578.82806  23525584.48806                 123627733.34306  96333327.30346
                  23525584.31646        39.700          22.800                  
  21420545.36708  21420549.66408                 112565716.19108  87713559.20449
                  21420549.72349        46.700          47.300                  
  20996984.07809  20996991.37909  20996990.66809 110339950.08009  85979185.08149
  82396716.33909  20996991.07449        50.500          52.600          51.700  
 20 04 21 00 01 45.0000000  0 10G03G10G14G16G22G26G27G29G31G32       0.000000000
  23702008.50005  23702015.13706  23702016.81308 124554864.60405  97055784.92048
  93011797.83408  23702014.89548        37.700          32.100          45.300  
  24457873.50805  24457881.36705  24457880.97707 128527039.24805 100150909.74445
  95977949.62107  24457881.74245        37.800          19.900          41.400  
  20600638.16408                                 108257095.81308  84356170.75749
                  20600642.35949        47.300          38.700                  
  21643937.46907                                 113739685.79607  88628325.92348
                  21643941.95348        44.700          33.200                  
  22964320.88307                                 120678303.83307  94035049.58347
                  22964323.06347        43.000          28.200                  
  20177933.55509  20177940.94909  20177940.13309 106035724.97009  82625280.42749
  79182552.43909  20177940.92249        49.400          53.800          54.400  
  25327212.28102  25327221.64804  25327221.84406 133095408.63002 103710738.97046
  99389453.77506  25327221.25446        31.500          22.500          40.000  
  23526005.78906  23526011.35505                 123629974.77106  96335073.89646
                  23526011.04346        39.800          22.600                  
  21421063.83608  21421068.23808                 112568440.99008  87715682.41849
                  21421068.16849        46.700          47.200                  
  20998191.63309  20998198.84009  20998198.32409 110346296.03109  85984129.97749
  82401455.19509  20998198.57049        50.200          52.500          51.500  
 20 04 21 00 01 50.0000000  0 10G03G10G14G16G22G26G27G29G31G32       0.000000000
  23700324.48405  23700332.27706  23700334.25408 124546021.38705  97048894.10348
  93005194.13508  23700332.27348        36.800          31.800          45.800  
  24461231.45306  24461239.48805  24461239.50007 128544688.82806 100164662.69345
  95991129.49007  24461240.00445        38.200          19.900          41.400  
  20600243.39108                                 108255020.41208  84354553.56149
                  20600247.30949        46.900          38.400                  
  21641383.46907                                 113726263.31207  88617866.85048
                  21641387.69548        44.700          33.300                  
  22963857.87507                                 120675872.30007  94033154.88747
                  22963860.10547        43.000          28.200                  
  20177490.11709  20177497.26209  20177496.89109 106033395.38309  82623465.16149
  79180812.81409  20177497.55949        49.600          53.800          54.300  
  25324045.96101  25324055.35903  25324055.54706 133078770.57801 103697774.26546
  99377029.25606  25324054.89846        29.400          20.900          39.500  
  23526434.12506  23526440.41005                 123632230.41206  96336831.52746
                  23526440.08246        39.200          22.300                  
  21421582.50008  21421586.91408                 112571167.22808  87717806.75549
                  21421586.94949        46.500          47.200                  
  20999401.64109  20999408.70709  20999408.23409 110352654.05209  85989084.27349
  82406203.06809  20999408.54749        49.700          52.600          51.700  
 20 04 21 00 01 55.0000000  0 10G03G10G14G16G22G26G27G29G31G32       0.000000000
  23698644.82005  23698652.37906  23698653.79308 124537191.06905  97042013.33948
  92998600.05608  23698651.96948        37.300          32.400          46.100  
  24464589.10205  24464598.08205  24464598.06307 128562336.37605 100178414.02245
  96004307.83707  24464598.10245        37.900          19.000          41.600  
  20599849.98408                                 108252955.41808  84352944.46949
                  20599854.34449        46.900          38.700                  
  21638831.45307                                 113712852.55507  88607416.90148
                  21638835.54348        44.800          33.100                  
  22963397.66407                                 120673453.85007  94031270.36447
                  22963400.08647        43.000          27.900                  
  20177049.78909  20177056.94509  20177056.27709 106031079.87509  82621660.87449
  79179083.70709  20177056.99249        49.400          53.800          54.300  
  25320878.02301  25320888.00403  25320888.57406 133062126.77601 103684805.05245
  99364600.48506  25320887.32445        30.100          19.900          38.100  
  23526866.85206  23526872.65605                 123634500.13706  96338600.12646
                  23526871.86746        39.800          22.600                  
  21422101.57008  21422106.22708                 112573894.78808  87719932.13149
                  21422105.96949        46.900          47.300                  
  21000613.38309  21000621.02309  21000620.37109 110359024.05709  85994047.90849
  82410959.87809  21000620.55949        49.800          52.500          51.500  
 20 04 21 00 02 00.0000000  0 10G03G10G14G16G22G26G27G29G31G32       0.000000000
  23696965.71905  23696974.14806  23696975.87108 124528373.71105  97035142.65848
  92992015.66308  23696974.06348        36.900          32.200          45.600  
  24467947.21105  24467956.01605  24467956.05107 128579981.96005 100192163.79945
  96017484.69307  24467955.99245        37.900          19.900          41.300  
  20599459.29708                                 108250900.91108  84351343.55549
                  20599463.46549        47.000          38.700                  
  21636281.93007                                 113699453.57007  88596976.13648
                  21636285.78948        44.700          32.600                  
  22962939.98407                                 120671048.57207  94029396.12347
                  22962942.24647        42.800          28.100                  
  20176611.73409  20176618.85909  20176618.28109 106028778.53409  82619867.62049
  79177365.16409  20176619.07049        49.400          53.800          54.600  
  25317711.07001  25317719.07003  25317719.72305                 103671822.51803
  99352167.45605  25317719.35245        30.500          19.600          37.500  
  23527301.66406  23527306.75806                 123636783.98406  96340379.75346
                  23527306.88346        39.600          22.800                  
  21422620.99208  21422625.55507                 112576623.71508  87722058.56949
                  21422625.30149        47.000          47.200                  
  21001828.39109  21001835.46909  21001834.90209 110365406.07709  85999020.90749
  82415725.66609  21001835.12149        50.200          52.600          51.600  
 20 04 21 00 02 05.0000000  0 10G03G10G14G16G22G26G27G29G31G32       0.000000000
  23695291.17205  23695298.57406  23695300.19508 124519569.28105  97028282.06448
  92985440.92808  23695298.16448        37.100          31.000          45.700  
  24471304.74205  24471313.77705  24471313.28507 128597625.49005 100205912.00045
  96030660.05907  24471313.39145        37.900          19.300          41.600  
  20599070.25008                                 108248856.82808  84349750.76049
                  20599074.55149        46.900          38.800                  
  21633734.15607                                 113686066.35107  88586544.53348
                  21633738.36748        44.700          32.200                  
  22962484.79707                                 120668656.47407  94027532.14147
                  22962487.23847        42.800          28.100                  
  20176176.30509  20176183.88309  20176182.98009 106026491.29809  82618085.35249
  79175657.16609  20176183.87549        49.300          53.800          54.400  
  25314541.17201  25314550.35903  25314550.64105 133028822.36601 103658853.53146
  99339730.22505  25314550.17646        30.500          21.300          37.600  
  23527738.69506  23527744.17605                 123639081.94006  96342170.37246
                  23527744.09046        39.600          22.600                  
  21423140.63308  21423145.07407                 112579354.02208  87724186.07749
                  21423144.91849        46.700          47.200                  
  21003044.81309  21003052.37509  21003051.47309 110371800.10009  86004003.25949
  82420500.42009  21003051.88349        50.200          52.500          51.300  
 20 04 21 00 02 10.0000000  0 10G03G10G14G16G22G26G27G29G31G32       0.000000000
  23693618.52305  23693626.46906  23693627.43008 124510777.74105  97021431.51948
  92978875.81708  23693625.39548        37.000          32.300          45.700  
  24474661.69505  24474670.47305  24474669.88307 128615267.02605 100219658.64145
  96043833.88507  24474670.56345        37.900          19.900          41.600  
  20598683.48408                                 108246823.15108  84348166.07749
                  20598687.62149        47.000          38.700                  
  21631188.67207                                 113672690.86407  88576122.07848
                  21631193.28548        44.700          32.600                  
  22962031.96907                                 120666277.47907  94025678.38147
                  22962034.58647        42.900          28.200                  
  20175743.89809  20175751.18809  20175750.46109 106024218.14909  82616314.07349
  79173959.67909  20175751.28949        49.300          53.800          54.300  
  25311370.73401  25311380.13703  25311380.36706 133012161.62101 103645871.12556
  99327288.77006  25311379.71146        30.800          22.000          38.400  
  23528177.64806  23528184.67205                 123641394.01506  96343971.99646
                  23528184.14146        39.700          22.300                  
  21423660.50008  21423664.58608                 112582085.65908  87726314.62249
                  21423664.69149        46.700          47.300                  
  21004264.04709  21004271.11709  21004270.50009 110378206.09409  86008994.94149
  82425284.11909  21004270.90649        49.900          52.500          51.600  
 20 04 21 00 02 15.0000000  0 10G03G10G14G16G22G26G27G29G31G32       0.000000000
  23691947.83605  23691955.37506  23691956.85908 124501999.19305  97014591.09148
  92972320.41808  23691954.78948        37.700          32.200          45.800  
  24478018.03105  24478027.14105  24478026.16007 128632906.48605 100233403.64645
  96057006.23807  24478027.08245        37.200          19.300          41.200  
  20598298.53108                                 108244800.00008  84346589.59549
                  20598302.39549        47.000          38.700                  
  21628646.21108                                 113659327.18408  88565708.82348
                  21628650.07448        45.100          32.400                  
  22961582.05507                                 120663911.65307  94023834.87647
                  22961584.45747        42.700          27.400                  
  20175313.88309  20175321.34809  20175320.50809 106021959.19209  82614553.84149
  79172272.79409  20175321.38749        50.100          53.900          54.200  
  25308198.51601  25308209.01203  25308209.25406 132995495.37101 103632884.43556
  99314843.18206  25308208.12146        28.600          20.900          39.400  
  23528620.79706  23528627.03506                 123643720.29006  96345784.66846
                  23528626.92646        39.800          23.600                  
  21424180.24208  21424184.89108                 112584818.68208  87728444.25149
                  21424184.78149        46.500          47.300                  
  21005485.34409  21005492.60209  21005491.87909 110384624.17709  86013996.04549
  82430076.83309  21005492.20749        50.000          52.500          51.500  
 20 04 21 00 02 20.0000000  0 10G03G10G14G16G22G26G27G29G31G32       0.000000000
  23690279.43805  23690287.26606  23690288.99608 124493233.57105  97007760.72148
  92965774.65008  23690287.10548        37.500          32.900          45.800  
  24481375.35905  24481383.03105  24481383.03507 128650543.88705 100247147.06745
  96070176.99707  24481383.52045        37.400          19.900          41.200  
  20597915.54708                                 108242787.27808  84345021.23149
                  20597919.52349        47.000          39.200                  
  21626105.39808                                 113645975.23108  88555304.70448
                  21626109.44148        45.200          32.400                  
  22961134.17207                                 120661558.93307  94022001.59747
                  22961136.52047        42.700          28.700                  
  20174886.60209  20174894.12509  20174893.30909 106019714.27709  82612804.55749
  79170596.39409  20174894.12549        49.800          53.700          54.400  
  25305027.48401  25305036.36703  25305036.56306                 103619884.29913
  99302393.33606  25305035.86745        28.900          19.900          39.600  
  23529066.18006  23529072.51206                 123646060.66006  96347608.34146
                  23529072.13346        39.900          22.900                  
  21424700.70308  21424705.34007                 112587553.03608  87730574.91249
                  21424705.11749        46.700          47.300                  
  21006708.82809  21006716.36709  21006715.44509 110391054.21109  86019006.45049
  82434878.47609  21006715.78549        49.700          52.500          51.500  
 20 04 21 00 02 25.0000000  0 10G03G10G14G16G22G26G27G29G31G32       0.000000000
  23688613.75005  23688622.42606  23688623.34008 124484480.94205  97000940.49748
  92959238.57108  23688621.55148        37.700          32.400          45.200  
  24484731.44505  24484739.75005  24484738.76207 128668179.21905 100260888.88845
  96083346.22007  24484739.86745        37.100          19.300          41.100  
  20597534.43808                                 108240785.07608  84343461.08049
                  20597538.54749        46.800          38.600                  
  21623566.72708                                 113632635.05708  88544909.77048
                  21623570.87148        45.300          32.900                  
  22960688.89807                                 120659219.32107  94020178.51547
                  22960691.45347        42.900          28.500                  
  20174462.18009  20174469.66409  20174468.77309 106017483.48009  82611066.27449
  79168930.53809  20174469.66049        49.800          53.800          54.200  
  25301853.78901  25301861.70703  25301862.87906                 103606888.78703
  99289939.33406  25301862.00445        28.600          18.600          38.800  
  23529514.17206  23529520.12106                 123648415.21506  96349443.06746
                  23529520.41046        39.400          22.600                  
  21425221.36708  21425225.80908                 112590288.73108  87732706.62649
                  21425225.59049        46.300          47.300                  
  21007934.93809  21007942.17609  21007941.23009 110397496.24709  86024026.21649
  82439689.09009  21007941.77749        50.300          52.500          51.400  
 20 04 21 00 02 30.0000000  0 10G03G10G14G16G22G26G27G29G31G32       0.000000000
  23686950.63305  23686958.53906  23686960.04308 124475741.22705  96994130.32548
  92952712.18908  23686958.37548        37.100          32.800          45.700  
  24488086.38305  24488095.33205  24488094.71907 128685812.48605 100274629.04845
  96096513.92707  24488095.37945        36.800          19.000          41.800  
  20597155.89108                                 108238793.40008  84341909.12549
                  20597159.54749        47.000          38.800                  
  21621030.42207                                 113619306.67607  88534524.00748
                  21621034.47348        44.900          32.300                  
  22960245.58607                                 120656892.85007  94018365.66447
                  22960248.55147        42.300          27.000                  
  20174040.38309  20174047.78909  20174047.03109 106015266.80009  82609338.98749
  79167275.22309  20174047.75449        49.200          53.800          54.400  
  25298678.50801  25298687.42604  25298688.27306 132945462.58101 103593897.91646
  99277481.13106  25298687.14546        29.400          20.100          38.900  
  23529965.14806  23529970.88306                 123650783.93506  96351288.81446
                  23529971.43046        39.500          23.500                  
  21425742.21908  21425746.86307                 112593025.77208  87734839.37749
                  21425746.48449        46.600          47.300                  
  21009162.90609  21009170.15209  21009169.39109 110403950.30609  86029055.34849
  82444508.67409  21009170.02749        50.000          52.500          51.200  
 20 04 21 00 02 35.0000000  0 10G03G10G14G16G22G26G27G29G31G32       0.000000000
  23685290.80505  23685298.16006  23685299.19108 124467014.44505  96987330.24348
  92946195.41908  23685297.90248        37.900          32.400          45.300  
  24491441.43805  24491450.18005  24491449.63307 128703443.62805 100288367.60145
  96109679.99907  24491450.41045        37.200          19.900          42.200  
  20596778.41408                                 108236812.10308  84340365.24949
                  20596782.34849        47.000          38.600                  
  21618496.03107                                 113605990.05107  88524147.41948
                  21618500.28948        44.900          31.900                  
  22959806.09407                                 120654579.45607  94016563.02147
                  22959808.39147        42.800          28.500                  
  20173621.39109  20173628.61309  20173627.77709 106013064.15609  82607622.64149
  79165630.38609  20173628.68049        49.100          53.400          54.300  
  25295502.89801  25295511.75003  25295512.48806                 103580884.67703
  99265018.71206  25295511.59846        30.700          21.800          39.000  
  23530418.96106  23530424.57806                 123653166.77106  96353145.56246
                  23530424.65246        39.600          22.300                  
  21426263.05508  21426267.60907                 112595764.09008  87736973.12949
                  21426267.56649        46.200          46.800                  
  21010393.33609  21010400.80108  21010399.93409 110410416.31709  86034093.79749
  82449337.17909  21010400.17249        50.200          52.100          51.200  
 20 04 21 00 02 40.0000000  0 10G03G10G14G16G22G26G27G29G31G32       0.000000000
  23683632.38305  23683639.68406  23683641.19108 124458300.69305  96980540.29448
  92939688.39608  23683639.60948        37.500          32.700          45.800  
  24494796.74205  24494805.24206  24494804.66007 128721072.72905 100302104.55545
  96122844.54707  24494805.01245        37.400          19.600          41.700  
  20596403.31308                                 108234841.39408  84338829.63249
                  20596407.52349        46.900          38.800                  
  21615964.68008                                 113592685.29608  88513780.07848
                  21615968.39148        45.400          33.000                  
  22959368.16407                                 120652279.28607  94014770.66947
                  22959370.84447        42.800          26.800                  
  20173204.71909  20173212.27309  20173211.38309 106010875.69409  82605917.34749
  79163996.14309  20173212.31349        49.100          53.700          54.500  
  25292325.50801  25292334.99205  25292335.93406 132912079.47101 103567885.09146
  99252552.16306  25292334.71146        29.400          22.300          39.700  
  23530874.25006  23530881.00406                 123655563.83806  96355013.41546
                  23530880.92246        40.000          23.900                  
  21426784.70308  21426789.01608                 112598503.82808  87739107.98749
                  21426789.00049        46.400          47.300                  
  21011625.98409  21011633.38709  21011632.53109 110416894.39809  86039141.65049
  82454174.71109  21011633.09449        49.600          52.500          51.300  
 20 04 21 00 02 45.0000000  0 10G03G10G14G16G22G26G27G29G31G32       0.000000000
  23681976.66405  23681984.36306  23681985.58208 124449599.93605  96973760.49048
  92933191.09908  23681983.77348        37.800          32.400          45.600  
  24498150.41405  24498158.91405  24498158.82007 128738699.69005 100315839.81245
  96136007.54007  24498159.32045        36.300          17.800          41.700  
  20596030.21908                                 108232881.23308  84337302.24049
                  20596034.39149        47.200          38.800                  
  21613434.89808                                 113579392.40808  88503421.98548
                  21613438.75848        45.100          32.700                  
  22958932.89107                                 120649992.23307  94012988.56347
                  22958935.37547        42.600          27.900                  
  20172790.95309  20172798.51209  20172797.60509 106008701.31909  82604223.02949
  79162372.43109  20172798.41449        49.100          53.700          54.300  
  25289147.40601  25289157.33604  25289158.25406 132895379.62601 103554872.22756
  99240081.45206  25289157.05546        30.300          22.500          40.300  
  23531333.27306  23531339.80906                 123657975.09706  96356892.32646
                  23531339.49646        39.500          23.000                  
  21427305.80508  21427310.79307                 112601244.89208  87741243.87949
                  21427310.70349        47.000          47.300                  
  21012861.32009  21012868.76209  21012867.66809 110423384.52509  86044198.88549
