     2.10           OBSERVATION DATA    G                   RINEX VERSION / TYPE
teqc  2015Nov6                          20250421 01:55:36UTCPGM / RUN BY / DATE 
gfzrnx-2.1.12       FILE PROCESSING     20250424 022036 UTC COMMENT             
INITIAL_RINEX_VERSION: 2.11                                 COMMENT             
KYC1                                                        MARKER NAME         
23002M001                                                   MARKER NUMBER       
HYDRO               Marine Department HKSAR                 OBSERVER / AGENCY   
5304K50018          TRIMBLE NETR9       5.37                REC # / TYPE / VERS 
5000117587          TRM57971.00     NONE                    ANT # / TYPE        
        0.1200        0.0000        0.0000                  ANTENNA: DELTA H/E/N
 -2408855.2574  5391043.2386  2403591.1306                  APPROX POSITION XYZ 
     7    C1    C2    C5    L1    L2    L5    P2            # / TYPES OF OBSERV 
Linux2.6.32-279.el6.x86_64|x86_64|gcc|Win64-MinGW64|=       COMMENT             
R3Converter 1.25    SMO                 20250421 015512 UTC COMMENT             
----------------------------------------------------------- COMMENT             
     1     1                                                WAVELENGTH FACT L1/2
     0                                                      RCV CLOCK OFFS APPL 
    18                                                      LEAP SECONDS        
CARRIER PHASE MEASUREMENTS: PHASE SHIFTS REMOVED            COMMENT             
----------------------------------------------------------- COMMENT             
cnvtToRINEX 3.12.0  SMO                 21-Apr-25 01:55 UTC COMMENT             
Forced Modulo Decimation to 5 seconds                       COMMENT             
----------------------------------------------------------- COMMENT             
         C1    C2    C5    L1    L2    L5    P2             COMMENT             
        ----  ----  ----  ----  ----  ----  ----            COMMENT             
GFZRNX.NUM_EPOCHS: 720                                      COMMENT
    12                                                      # OF SATELLITES     
   G01   720   720   720   720   720   720   720            PRN / # OF OBS      
   G02   720               720   720         720            PRN / # OF OBS      
   G04   720   720   720   720   720   720   720            PRN / # OF OBS      
   G07   720   720         720   720         720            PRN / # OF OBS      
   G08   720   720   720   720   720   720   720            PRN / # OF OBS      
   G09   720   720   720   720   720   720   720            PRN / # OF OBS      
   G14   213   213   213   208   213   213   213            PRN / # OF OBS      
   G16   720               715   714         719            PRN / # OF OBS      
   G17   490   490         490   490         490            PRN / # OF OBS      
   G26   181   181   181   177   181   181   181            PRN / # OF OBS      
   G27   720   720   720   719   720   720   720            PRN / # OF OBS      
   G30   720   720   720   720   720   720   720            PRN / # OF OBS      
     5.000                                                  INTERVAL            
  2025     4    21     0     0    0.0000000     GPS         TIME OF FIRST OBS   
  2025     4    21     0    59   55.0000000     GPS         TIME OF LAST OBS    
                                                            END OF HEADER      
 25 04 21 00 00 00.0000000  0 10G01G02G04G07G08G09G16G26G27G30      
  22893891.031 5  22893900.320 8  22893905.461 9 120308195.728 5  93746647.973 8
  89840537.875 9  22893899.94946
  21041364.766 6                                 110573063.662 6  86160845.02548
                  21041371.11748
  22372823.586 5  22372833.602 9  22372837.266 9 117569962.434 5  91612947.334 9
  87795739.431 9  22372833.62147
  22378384.664 6  22378392.145 9                 117599179.153 6  91635719.055 9
                  22378392.43448
  20158203.469 6  20158213.188 9  20158211.926 9 105932092.036 6  82544473.782 9
  79105119.665 9  20158212.32049
  22124182.570 6  22124192.609 9  22124193.418 9 116263327.130 6  90594792.042 9
  86820005.885 9  22124192.61748
  23564919.648 5                                 123834579.777 5  96494510.74246
                  23564930.92646
  25161661.883 2  25161681.074 8  25161682.598 8 132225452.339 2 103032792.924 8
  98739762.859 8  25161681.00446
  22155123.992 5  22155135.027 9  22155134.426 9 116425952.248 5  90721525.940 9
  86941464.663 9  22155134.75848
  25157834.359 3  25157848.516 7  25157848.488 8 132205308.801 3 103017126.474 7
  98724746.449 8  25157847.71946
 25 04 21 00 00 05.0000000  0 10G01G02G04G07G08G09G16G26G27G30      
  22890896.398 5  22890906.133 8  22890911.105 9 120292460.266 5  93734386.561 8
  89828787.374 9  22890905.62146
  21039766.227 6                                 110564662.013 6  86154298.28448
                  21039772.32048
  22375435.727 6  22375445.551 9  22375449.766 9 117583690.718 6  91623644.673 9
  87805991.060 9  22375446.12547
  22375635.883 6  22375643.328 9                 117584734.199 6  91624463.258 9
                  22375643.68848
  20159374.109 6  20159384.164 9  20159383.039 9 105938246.620 6  82549269.545 9
  79109715.612 9  20159383.66049
  22125569.406 6  22125579.840 9  22125580.711 9 116270617.429 6  90600472.807 9
  86825449.936 9  22125579.94148
  23566640.805 5                                 123843625.672 5  96501559.43146
                  23566652.50046
  25163501.469 2  25163520.906 8  25163522.242 8 132235118.919 2 103040325.313 8
  98746981.384 8  25163520.75046
  22157988.688 5  22157999.516 9  22157999.137 9 116441006.265 5  90733256.333 9
  86952706.268 9  22157999.59848
  25154596.484 3  25154610.188 8  25154612.090 8 132188294.458 3 103003868.414 8
  98712040.905 8  25154609.85946
 25 04 21 00 00 10.0000000  0 10G01G02G04G07G08G09G16G26G27G30      
  22887902.484 5  22887912.020 8  22887916.965 9 120276727.315 5  93722127.126 8
  89817038.758 9  22887911.84446
  21038169.664 6                                 110556273.999 6  86147762.17248
                  21038176.25848
  22378049.391 6  22378059.164 9  22378062.926 9 117597423.812 6  91634345.756 9
  87816246.252 9  22378059.23447
  22372887.453 6  22372895.770 9                 117570294.077 6  91613211.220 9
                  22372895.77748
  20160547.703 6  20160557.461 9  20160556.258 9 105944411.782 6  82554073.568 9
  79114319.456 9  20160556.89849
  22126958.906 6  22126969.570 9  22126969.961 9 116277918.507 6  90606161.933 9
  86830902.011 9  22126969.22748
  23568362.383 5                                 123852671.651 5  96508608.22946
                  23568373.93046
  25165340.883 1  25165359.941 8  25165361.750 8 132244786.769 1 103047858.665 8
  98754200.845 8  25165360.21546
  22160853.953 5  22160864.945 9  22160864.652 9 116456064.011 5  90744989.604 9
  86963950.658 9  22160865.08648
  25151359.477 4  25151373.078 8  25151373.164 8 132171279.401 4 102990610.034 8
  98699334.894 8  25151372.16447
 25 04 21 00 00 15.0000000  0 10G01G02G04G07G08G09G16G26G27G30      
  22884908.641 5  22884919.246 8  22884923.625 9 120260996.845 5  93709869.643 8
  89805292.002 9  22884918.52346
  21036575.961 6                                 110547899.476 6  86141236.57148
                  21036582.51648
  22380663.391 6  22380672.883 9  22380676.973 9 117611161.598 6  91645050.510 9
  87826504.978 9  22380673.58247
  22370141.117 6  22370148.633 9                 117555858.767 6  91601962.920 9
                  22370148.69948
  20161722.656 6  20161732.789 9  20161731.570 9 105950587.433 6  82558885.757 9
  79118931.143 9  20161732.04349
  22128349.977 6  22128360.895 9  22128361.445 9 116285230.195 6  90611859.344 9
  86836362.032 9  22128360.65248
  23570084.063 4                                 123861717.712 4  96515657.06446
                  23570095.48446
  25167181.477 1  25167200.590 7  25167201.660 8 132254455.752 1 103055392.906 7
  98761421.142 8  25167199.99246
  22163719.742 5  22163731.238 9  22163730.805 9 116471125.416 5  90756725.759 9
  86975197.794 9  22163731.35548
  25148120.773 3  25148134.695 8  25148136.953 8 132154263.752 3 102977350.959 8
  98686628.354 8  25148133.86347
 25 04 21 00 00 20.0000000  0 10G01G02G04G07G08G09G16G26G27G30      
  22881916.320 5  22881926.371 8  22881930.641 9 120245268.921 5  93697614.127 8
  89793547.141 9  22881925.58646
  21034985.180 6                                 110539538.537 6  86134721.55848
                  21034991.52048
  22383278.695 5  22383288.305 9  22383292.195 9 117624904.153 5  91655758.982 9
  87836767.248 9  22383288.84047
  22367395.297 6  22367402.480 9                 117541428.323 6  91590718.432 9
                  22367402.66848
  20162899.719 6  20162910.215 9  20162908.734 9 105956773.629 6  82563706.171 9
  79123550.701 9  20162909.27349
  22129743.297 5  22129753.941 9  22129754.629 9 116292552.583 5  90617565.083 9
  86841830.039 9  22129754.13748
  23571804.922 4                                 123870763.827 4  96522705.96046
                  23571816.59846
  25169020.453 1  25169040.887 8  25169042.043 8 132264126.019 1 103062928.138 8
  98768642.401 8  25169040.09846
  22166586.984 5  22166598.262 9  22166597.488 9 116486190.522 5  90768464.796 9
  86986447.693 9  22166598.18848
  25144884.336 3  25144896.625 7  25144896.680 8 132137247.342 3 102964091.548 7
  98673921.336 8  25144896.17646
 25 04 21 00 00 25.0000000  0 10G01G02G04G07G08G09G16G26G27G30      
  22878923.789 5  22878933.512 8  22878938.254 9 120229543.452 5  93685360.521 8
  89781804.099 9  22878933.37546
  21033396.844 6                                 110531191.094 6  86128217.06848
                  21033403.18448
  22385894.984 6  22385904.488 9  22385908.020 9 117638651.310 6  91666471.035 9
  87847032.969 9  22385904.63747
  22364649.602 6  22364657.910 9                 117527002.614 6  91579477.625 9
                  22364657.59448
  20164079.195 6  20164089.035 9  20164087.926 9 105962970.221 6  82568534.686 9
  79128178.031 9  20164088.61349
  22131139.133 6  22131149.684 9  22131149.984 9 116299885.544 6  90623279.075 9
  86847305.941 9  22131149.60248
  23573526.883 4                                 123879809.960 4  96529754.84046
                  23573538.34446
  25170862.023 1  25170880.645 8  25170882.480 8 132273797.351 1 103070464.227 8
  98775864.467 8  25170880.61346
  22169454.109 5  22169465.453 9  22169465.094 9 116501259.196 5  90780206.601 9
  86997700.265 9  22169465.70748
  25141642.680 1  25141658.117 7  25141660.707 8 132120230.208 1 102950831.430 7
  98661213.760 8  25141657.66446
 25 04 21 00 00 30.0000000  0 10G01G02G04G07G08G09G16G26G27G30      
  22875931.484 5  22875941.719 8  22875946.176 9 120213820.502 5  93673108.869 8
  89770062.939 9  22875941.31346
  21031810.961 6                                 110522857.204 6  86121723.12248
                  21031817.27348
  22388511.547 6  22388521.066 9  22388524.953 9 117652403.157 6  91677186.751 9
  87857302.182 9  22388521.68447
  22361905.797 6  22361913.297 9                 117512581.733 6  91568240.590 9
                  22361913.37148
  20165260.227 6  20165270.375 9  20165269.094 9 105969177.305 6  82573371.371 9
  79132813.185 9  20165269.70349
  22132536.227 6  22132547.266 9  22132547.406 9 116307229.156 6  90629001.358 9
  86852789.791 9  22132547.10948
  23575248.281 4                                 123888856.205 4  96536803.83946
                  23575259.88746
  25172702.602 1  25172720.852 7  25172722.883 8 132283469.858 1 103078001.228 7
  98783087.405 8  25172720.77746
  22172322.594 5  22172334.105 9  22172333.305 9 116516331.527 5  90791951.260 9
  87008955.547 9  22172333.86348
  25138406.492 2  25138420.340 7  25138420.191 8 132103212.533 2 102937570.916 7
  98648505.705 8  25138419.55946
 25 04 21 00 00 35.0000000  0 10G01G02G04G07G08G09G16G26G27G30      
  22872940.367 5  22872950.352 8  22872954.832 9 120198100.134 5  93660859.248 8
  89758323.716 9  22872950.05546
  21030227.656 6                                 110514536.966 6  86115239.82248
                  21030233.90648
  22391129.602 6  22391138.984 9  22391142.605 9 117666159.720 6  91687906.121 9
  87867574.914 9  22391139.48847
  22359162.008 6  22359170.031 9                 117498165.772 6  91557007.374 9
                  22359170.05948
  20166443.750 6  20166453.500 9  20166452.324 9 105975394.896 6  82578216.254 9
  79137456.193 9  20166452.97749
  22133935.398 6  22133946.688 9  22133946.781 9 116314583.407 6  90634731.928 9
  86858281.592 9  22133946.71948
  23576969.438 4                                 123897902.543 4  96543852.89346
                  23576981.27746
  25174542.672 1  25174562.449 7  25174563.781 8 132293143.589 1 103085539.188 7
  98790311.277 8  25174561.53146
  22175191.688 5  22175202.742 8  22175202.012 9 116531407.530 5  90803698.779 8
  87020213.585 9  22175202.68848
  25135167.813 2  25135179.523 7  25135183.074 8 132086194.115 2 102924309.733 7
  98635797.180 8  25135180.81346
 25 04 21 00 00 40.0000000  0 10G01G02G04G07G08G09G16G26G27G30      
  22869949.445 5  22869959.660 8  22869963.770 9 120182382.142 5  93648611.462 8
  89746586.267 9  22869959.34846
  21028646.953 6                                 110506230.190 6  86108767.01348
                  21028653.15248
  22393747.633 6  22393757.949 9  22393761.250 9 117679920.751 6  91698628.987 9
  87877851.004 9  22393757.82847
  22356419.969 6  22356427.797 9                 117483754.469 6  91545777.803 9
                  22356427.68048
  20167628.516 6  20167638.520 9  20167637.270 9 105981622.766 6  82583069.134 9
  79142106.868 9  20167638.07849
  22135337.422 6  22135347.996 9  22135348.262 9 116321948.083 6  90640470.629 9
  86863781.183 9  22135348.24648
  23578691.250 5                                 123906948.755 5  96550901.85446
                  23578702.84046
  25176385.336 1  25176403.063 8  25176404.855 8 132302818.373 1 103093077.949 8
  98797535.916 8  25176402.84846
  22178060.922 5  22178072.344 9  22178071.605 9 116546486.979 5  90815448.970 9
  87031474.194 9  22178072.24648
  25131929.141 2  25131942.602 8  25131942.988 8 132069174.983 2 102911048.173 8
  98623088.078 8  25131942.32046
 25 04 21 00 00 45.0000000  0 10G01G02G04G07G08G09G16G26G27G30      
  22866959.297 5  22866969.129 8  22866973.242 9 120166667.000 5  93636365.909 8
  89734850.940 9  22866968.84046
  21027069.070 6                                 110497937.280 6  86102305.00648
                  21027075.11348
  22396367.414 6  22396377.070 9  22396380.809 9 117693686.691 6  91709355.683 9
  87888130.743 9  22396377.44147
  22353678.461 6  22353686.449 9                 117469348.345 6  91534552.249 9
                  22353686.21148
  20168815.859 6  20168825.895 9  20168824.559 9 105987861.359 6  82587930.359 9
  79146765.553 9  20168825.37149
  22136740.977 6  22136751.445 9  22136751.836 9 116329323.639 6  90646217.795 9
  86869288.885 9  22136751.71148
  23580412.586 5                                 123915995.304 5  96557951.07946
                  23580424.21146
  25178225.469 1  25178244.723 8  25178246.207 8 132312494.567 1 103100617.838 8
  98804761.631 8  25178244.26246
  22180930.922 5  22180942.297 9  22180941.977 9 116561570.275 5  90827202.201 9
  87042737.690 9  22180942.60548
  25128690.789 4  25128704.313 7  25128705.996 8 132052155.434 4 102897786.077 7
  98610378.688 8  25128703.63346
 25 04 21 00 00 50.0000000  0 10G01G02G04G07G08G09G16G26G27G30      
  22863968.758 5  22863978.516 8  22863983.199 9 120150954.294 5  93624122.249 8
  89723117.446 9  22863978.60546
  21025493.609 6                                 110489657.879 6  86095853.53348
                  21025499.47748
  22398988.211 6  22398997.414 9  22399001.082 9 117707457.103 6  91720085.860 9
  87898413.820 9  22398997.82047
  22350937.883 6  22350945.785 9                 117454946.981 6  91523330.425 9
                  22350945.70748
  20170005.313 6  20170015.031 9  20170013.723 9 105994110.236 6  82592799.620 9
  79151431.922 9  20170014.48449
  22138147.078 5  22138157.230 9  22138157.289 9 116336709.624 5  90651973.106 9
  86874804.386 9  22138157.16848
  23582133.945 4                                 123925041.749 4  96565000.22046
                  23582145.96546
  25180066.188 1  25180086.590 8  25180087.762 8 132322171.896 1 103108158.517 8
  98811988.123 8  25180086.36346
  22183802.141 5  22183813.242 9  22183812.816 9 116576657.037 5  90838958.094 9
  87054003.759 9  22183813.40248
  25125450.813 2  25125465.711 8  25125465.941 8 132035135.062 2 102884523.616 8
  98597668.740 8  25125464.99646
 25 04 21 00 00 55.0000000  0 10G01G02G04G07G08G09G16G26G27G30      
  22860979.266 5  22860989.141 9  22860993.703 9 120135244.143 5  93611880.587 9
  89711385.837 9  22860989.24646
  21023920.563 6                                 110481392.048 6  86089412.62948
                  21023926.68848
  22401609.609 6  22401618.969 9  22401622.426 9 117721232.064 6  91730819.583 9
  87908700.299 9  22401619.07447
  22348198.414 6  22348206.141 9                 117440550.435 6  91512112.344 9
                  22348206.10948
  20171195.977 6  20171206.109 9  20171204.781 9 106000369.463 6  82597676.946 9
  79156106.017 9  20171205.50049
  22139554.141 5  22139564.246 9  22139564.773 9 116344106.119 5  90657736.589 9
  86880327.728 9  22139564.68048
  23583856.000 4                                 123934088.223 4  96572049.39846
                  23583867.27046
  25181908.633 1  25181928.824 8  25181929.645 8 132331850.234 1 103115700.114 8
  98819215.472 8  25181928.35546
  22186673.625 5  22186685.008 9  22186684.379 9 116591747.288 5  90850716.731 9
  87065272.435 9  22186685.01248
  25122212.102 2  25122226.422 7  25122227.555 8 132018114.191 2 102871260.458 7
  98584958.285 8  25122225.75046
 25 04 21 00 01 00.0000000  0 10G01G02G04G07G08G09G16G26G27G30      
  22857990.531 5  22858000.027 8  22858004.656 9 120119536.781 5  93599641.093 8
  89699656.332 9  22858000.52046
  21022349.914 6                                 110473140.034 6  86082982.48948
                  21022356.44948
  22404231.484 6  22404241.238 9  22404244.813 9 117735011.794 6  91741557.020 9
  87918990.344 9  22404241.40247
  22345459.664 6  22345467.320 9                 117426158.996 6  91500898.236 9
                  22345467.50048
  20172388.930 6  20172399.180 9  20172397.883 9 106006639.313 6  82602562.528 9
  79160788.041 9  20172398.73049
  22140963.547 6  22140974.539 9  22140974.473 9 116351513.357 6  90663508.447 9
  86885859.090 9  22140974.18048
  23585577.188 4                                 123943134.952 4  96579098.76746
                  23585588.77746
  25183750.398 2  25183770.035 8  25183771.641 8 132341530.043 2 103123242.753 8
  98826443.861 8  25183770.27046
  22189546.766 5  22189557.203 9  22189556.727 9 116606841.319 5  90862478.290 9
  87076543.928 9  22189557.33248
  25118973.352 2  25118988.242 8  25118988.344 8 132001092.763 2 102857997.107 8
  98572247.519 8  25118986.58246
 25 04 21 00 01 05.0000000  0 10G01G02G04G07G08G09G16G26G27G30      
  22855002.242 5  22855011.816 8  22855016.352 9 120103831.902 5  93587403.523 8
  89687928.657 9  22855011.96546
  21020782.594 6                                 110464901.493 6  86076562.85848
                  21020788.65248
  22406854.898 6  22406864.273 9  22406867.613 9 117748795.963 6  91752297.914 9
  87929283.704 9  22406864.30547
  22342721.906 6  22342729.883 9                 117411772.335 6  91489687.845 9
                  22342729.92248
  20173584.063 6  20173594.270 9  20173592.781 9 106012919.386 6  82607456.084 9
  79165477.702 9  20173593.68849
  22142375.156 6  22142385.570 9  22142385.945 9 116358930.976 6  90669288.415 9
  86891398.219 9  22142385.72348
  23587298.484 5                                 123952181.608 5  96586148.04846
                  23587310.12946
  25185591.969 1  25185612.594 8  25185614.168 8 132351210.929 1 103130786.244 8
  98833673.030 8  25185612.95346
  22192419.016 5  22192430.402 9  22192429.695 9 116621938.757 5  90874242.503 9
  87087817.974 9  22192430.28548
  25115733.789 2  25115747.176 7  25115748.957 8 131984070.697 2 102844733.097 7
  98559536.185 8  25115747.27046
 25 04 21 00 01 10.0000000  0 10G01G02G04G07G08G09G16G26G27G30      
  22852013.703 5  22852024.270 8  22852028.352 9 120088129.671 5  93575168.022 8
  89676202.976 9  22852024.04347
  21019217.234 6                                 110456676.638 6  86070153.88648
                  21019223.53548
  22409478.555 6  22409488.410 9  22409491.723 9 117762584.712 6  91763042.378 9
  87939580.468 9  22409488.04347
  22339985.258 6  22339993.215 9                 117397390.593 6  91478481.317 9
                  22339993.12948
  20174781.242 6  20174791.398 9  20174789.867 9 106019209.873 6  82612357.767 9
  79170175.146 9  20174790.74249
  22143788.688 6  22143799.223 9  22143799.438 9 116366359.155 6  90675076.598 9
  86896945.228 9  22143799.16048
  23589020.742 5                                 123961228.389 5  96593197.45846
                  23589031.77046
  25187434.719 1  25187454.848 8  25187456.539 8 132360892.947 1 103138330.690 8
  98840903.109 8  25187455.18446
  22195292.672 5  22195304.430 9  22195303.332 9 116637039.761 5  90886009.508 9
  87099094.676 9  22195303.92648
  25112495.258 3  25112509.164 8  25112509.895 8 131967047.918 3 102831468.640 8
  98546824.429 8  25112508.10246
 25 04 21 00 01 15.0000000  0 10G01G02G04G07G08G09G16G26G27G30      
  22849027.047 5  22849036.176 8  22849040.844 9 120072430.137 5  93562934.630 8
  89664479.295 9  22849036.68046
  21017655.094 6                                 110448465.499 6  86063755.59148
                  21017660.81648
  22412103.633 5  22412113.188 9  22412116.648 9 117776378.049 5  91773790.421 9
  87949880.678 9  22412112.95347
  22337249.305 6  22337257.238 9                 117383013.874 6  91467278.678 9
                  22337257.29748
  20175980.570 6  20175990.000 9  20175988.906 9 106025510.790 6  82617267.570 9
  79174880.371 9  20175989.71949
  22145204.320 6  22145214.949 9  22145215.086 9 116373797.911 6  90680873.008 9
  86902500.120 9  22145214.82448
  23590742.117 4                                 123970275.329 4  96600246.99346
                  23590753.61346
  25189277.797 1  25189297.480 8  25189299.063 8 132370576.300 1 103145876.098 8
  98848134.136 8  25189297.73446
  22198167.406 5  22198178.574 8  22198177.637 9 116652144.358 5  90897779.298 8
  87110374.062 9  22198178.14148
  25109254.313 1  25109269.625 7  25109270.223 8 131950024.685 1 102818203.764 7
  98534112.283 8  25109268.84846
 25 04 21 00 01 20.0000000  0 10G01G02G04G07G08G09G16G26G27G30      
  22846039.586 5  22846049.219 8  22846054.055 9 120056733.270 5  93550703.312 8
  89652757.625 9  22846049.42246
  21016094.844 6                                 110440268.039 6  86057367.96648
                  21016101.01248
  22414729.055 6  22414738.633 9  22414742.332 9 117790175.923 6  91784541.999 9
  87960184.265 9  22414738.65247
  22334514.492 6  22334522.496 9                 117368642.109 6  91456079.913 9
                  22334522.48048
  20177181.008 6  20177190.973 9  20177189.859 9 106031822.074 6  82622185.441 9
  79179593.328 9  20177190.84849
  22146622.125 6  22146632.418 9  22146632.648 9 116381247.151 6  90686677.613 9
  86908062.851 9  22146632.38748
  23592463.703 5                                 123979322.340 5  96607296.57046
                  23592475.09846
  25191121.125 1  25191140.668 8  25191141.988 8 132380260.871 1 103153422.482 8
  98855366.058 8  25191140.42646
  22201042.227 5  22201053.430 8  22201052.551 9 116667252.439 5  90909551.823 8
  87121656.060 9  22201053.19148
  25106015.805 3  25106030.816 8  25106031.387 8 131933000.886 3 102804938.453 8
  98521399.704 8  25106029.56346
 25 04 21 00 01 25.0000000  0 10G01G02G04G07G08G09G16G26G27G30      
  22843052.359 5  22843063.133 9  22843067.309 9 120041038.935 5  93538473.981 9
  89641037.839 9  22843062.93046
  21014537.609 6                                 110432084.130 6  86050990.89948
                  21014543.69948
  22417355.555 5  22417365.465 9  22417368.926 9 117803978.179 5  91795296.986 9
  87970491.130 9  22417365.38347
  22331780.531 6  22331788.703 9                 117354275.159 6  91444884.897 9
                  22331788.55548
  20178384.523 6  20178394.422 9  20178392.789 9 106038143.589 6  82627111.295 9
  79184313.933 9  20178393.80949
  22148041.602 6  22148051.512 9  22148052.117 9 116388706.761 6  90692490.301 9
  86913633.342 9  22148051.83248
  23594185.297 5                                 123988369.371 5  96614346.17846
                  23594196.93446
  25192965.133 1  25192983.586 8  25192985.270 8 132389946.477 1 103160969.696 8
  98862598.802 8  25192983.52046
  22203917.398 5  22203928.746 8  22203928.234 9 116682363.921 5  90921326.992 8
  87132940.593 9  22203928.62548
  25102776.023 3  25102790.184 7  25102790.746 8 131915976.344 3 102791672.633 7
  98508686.612 8  25102789.83246
 25 04 21 00 01 30.0000000  0 10G01G02G04G07G08G09G16G26G27G30      
  22840066.727 5  22840076.863 9  22840081.352 9 120025347.441 5  93526246.846 9
  89629320.176 9  22840076.94946
  21012983.016 6                                 110423914.043 6  86044624.60548
                  21012988.87148
  22419982.609 5  22419992.859 9  22419996.434 9 117817785.060 5  91806055.566 9
  87980801.440 9  22419992.90247
  22329047.414 6  22329055.785 9                 117339913.324 6  91433693.862 9
                  22329055.67648
  20179589.164 6  20179599.117 9  20179597.746 9 106044475.560 6  82632045.297 9
  79189042.359 9  20179598.69149
  22149462.867 6  22149473.188 9  22149473.707 9 116396176.971 6  90698311.241 9
  86919211.743 9  22149473.48448
  23595906.891 5                                 123997416.531 5  96621395.86046
                  23595918.61746
  25194807.563 1  25194827.359 8  25194828.625 8 132399633.453 1 103168517.937 8
  98869832.542 8  25194826.66446
  22206793.844 5  22206805.813 9  22206804.453 9 116697479.035 5  90933104.984 9
  87144227.832 9  22206805.10948
  25099535.578 2  25099551.598 8  25099551.980 8 131898951.430 2 102778406.467 8
  98495973.189 8  25099550.02746
 25 04 21 00 01 35.0000000  0 10G01G02G04G07G08G09G16G26G27G30      
  22837081.250 5  22837091.547 9  22837095.871 9 120009658.593 5  93514021.772 9
  89617604.476 9  22837091.80146
  21011430.609 6                                 110415757.610 6  86038268.93748
                  21011436.71948
  22422611.219 5  22422621.355 9  22422624.629 9 117831596.360 5  91816817.616 9
  87991115.052 9  22422621.16047
  22326315.492 6  22326323.605 9                 117325556.430 6  91422506.685 9
                  22326323.61348
  20180796.328 6  20180806.215 9  20180804.582 9 106050817.802 6  82636987.305 9
  79193778.450 9  20180805.56349
  22150886.461 6  22150897.063 9  22150897.250 9 116403657.606 6  90704140.288 9
  86924797.919 9  22150896.86748
  23597629.023 4                                 124006463.710 4  96628445.59946
                  23597640.05946
  25196651.438 1  25196670.711 8  25196672.215 8 132409321.578 1 103176067.125 8
  98877067.144 8  25196670.59046
  22209671.148 5  22209682.012 9  22209681.473 9 116712597.556 5  90944885.627 9
  87155517.613 9  22209681.97348
  25096296.445 3  25096310.617 7  25096310.961 8 131881925.906 3 102765139.793 7
  98483259.314 8  25096309.89146
 25 04 21 00 01 40.0000000  0 10G01G02G04G07G08G09G16G26G27G30      
  22834095.867 5  22834106.375 9  22834110.754 9 119993972.638 5  93501798.930 9
  89605890.928 9  22834106.83246
  21009880.961 6                                 110407615.021 6  86031924.06648
                  21009887.15648
  22425240.203 5  22425250.219 9  22425253.805 9 117845412.284 5  91827583.251 9
  88001432.125 9  22425250.31647
  22323584.109 6  22323592.703 9                 117311204.690 6  91411323.523 9
                  22323592.55148
  20182005.203 6  20182014.828 9  20182013.625 9 106057170.544 6  82641937.486 9
  79198522.366 9  20182014.46549
  22152311.898 6  22152322.371 9  22152322.793 9 116411148.853 6  90709977.620 9
  86930392.002 9  22152322.28948
  23599350.000 5                                 124015511.091 5  96635495.45546
                  23599361.77746
  25198494.344 2  25198515.266 8  25198516.137 8 132419011.072 2 103183617.352 8
  98884302.792 8  25198514.63346
  22212548.680 5  22212560.004 9  22212559.023 9 116727719.694 5  90956669.094 9
  87166810.102 9  22212559.62148
  25093057.898 4  25093070.816 8  25093072.371 8 131864899.930 4 102751872.864 8
  98470545.168 8  25093070.31646
 25 04 21 00 01 45.0000000  0 10G01G02G04G07G08G09G16G26G27G30      
  22831111.453 5  22831121.824 8  22831126.473 9 119978289.278 5  93489578.160 8
  89594179.340 9  22831122.41446
  21008334.219 6                                 110399486.076 6  86025589.82748
                  21008340.25848
  22427869.813 5  22427879.980 9  22427883.738 9 117859232.569 5  91838352.280 9
  88011752.435 9  22427880.09847
  22320854.281 6  22320862.406 9                 117296857.900 6  91400144.205 9
                  22320862.31348
  20183216.094 6  20183226.043 9  20183224.430 9 106063533.488 6  82646895.617 9
  79203273.915 9  20183225.24649
  22153739.406 6  22153750.117 9  22153750.125 9 116418650.443 6  90715822.993 9
  86935993.839 9  22153749.87948
  23601071.758 5                                 124024558.460 5  96642545.30446
                  23601083.71146
  25200339.008 1  25200359.207 8  25200360.410 8 132428701.646 1 103191168.464 8
  98891539.250 8  25200359.13346
  22215426.711 5  22215438.273 9  22215437.438 9 116742845.191 5  90968455.184 9
  87178105.103 9  22215437.96948
  25089815.844 2  25089829.422 7  25089830.656 8 131847873.384 2 102738605.413 7
  98457830.559 8  25089830.23047
 25 04 21 00 01 50.0000000  0 10G01G02G04G07G08G09G16G26G27G30      
  22828127.844 5  22828137.828 9  22828142.539 9 119962608.678 5  93477359.494 9
  89582469.808 9  22828138.40646
  21006789.969 6                                 110391370.881 6  86019266.30848
                  21006795.88348
  22430500.203 5  22430510.238 9  22430514.578 9 117873057.299 5  91849124.770 9
  88022076.074 9  22430511.16847
  22318124.875 6  22318133.375 9                 117282516.109 6  91388968.807 9
                  22318133.31648
  20184428.688 6  20184438.809 9  20184437.309 9 106069906.739 6  82651861.778 9
  79208033.156 9  20184438.04349
  22155169.125 6  22155179.457 9  22155179.633 9 116426162.456 6  90721676.500 9
  86941603.443 9  22155179.21948
  23602793.750 5                                 124033605.903 5  96649595.23646
                  23602805.48046
  25202183.547 2  25202202.879 8  25202204.688 8 132438393.515 2 103198720.506 8
  98898776.605 8  25202203.48446
  22218305.758 5  22218317.477 9  22218316.359 9 116757974.113 5  90980243.948 9
  87189402.674 9  22218317.10548
  25086576.789 4  25086590.055 8  25086591.906 8 131830846.385 4 102725337.612 8
  98445115.576 8  25086590.39847
 25 04 21 00 01 55.0000000  0 10G01G02G04G07G08G09G16G26G27G30      
  22825144.445 5  22825154.980 9  22825159.086 9 119946930.860 5  93465143.048 9
  89570762.374 9  22825155.15246
  21005248.078 6                                 110383269.487 6  86012953.53948
                  21005254.41048
  22433132.398 5  22433142.109 9  22433146.117 9 117886886.510 5  91859900.751 9
  88032403.061 9  22433142.59846
  22315396.898 6  22315405.098 9                 117268179.401 6  91377797.342 9
                  22315405.03548
  20185642.938 6  20185653.582 9  20185652.059 9 106076290.317 6  82656836.000 9
  79212800.116 9  20185652.77049
  22156600.430 6  22156610.895 9  22156611.004 9 116433684.918 6  90727538.153 9
  86947220.861 9  22156610.80148
  23604515.438 5                                 124042653.493 5  96656645.26146
                  23604527.01646
  25204028.313 1  25204047.973 8  25204048.957 8 132448086.591 1 103206273.544 8
  98906014.944 8  25204048.07447
  22221185.172 5  22221196.730 9  22221195.848 9 116773106.559 5  90992035.432 9
  87200702.835 9  22221196.61348
  25083336.320 4  25083349.996 7  25083350.617 8 131813818.797 4 102712069.379 7
  98432400.208 8  25083350.09447
 25 04 21 00 02 00.0000000  0 10G01G02G04G07G08G09G16G26G27G30      
  22822162.227 5  22822171.891 9  22822176.070 9 119931255.927 5  93452928.815 9
  89559057.064 9  22822172.16846
  21003709.352 6                                 110375181.940 6  86006651.55048
                  21003715.42248
  22435764.625 5  22435774.695 9  22435778.555 9 117900720.200 5  91870680.240 9
  88042733.387 9  22435775.01247
  22312669.844 6  22312677.805 9                 117253847.842 6  91366629.894 9
                  22312677.75448
  20186859.734 6  20186870.000 9  20186868.758 9 106082684.266 6  82661818.289 9
  79217574.808 9  20186869.52049
  22158033.570 6  22158044.609 9  22158044.398 9 116441217.874 6  90733407.986 9
  86952846.109 9  22158044.24248
  23606237.031 5                                 124051701.225 5  96663695.42146
                  23606248.60946
  25205873.266 1  25205893.020 8  25205893.676 8 132457780.980 1 103213827.595 8
  98913254.237 8  25205893.38346
  22224065.961 5  22224076.992 9  22224076.207 9 116788242.487 5  91003829.661 9
  87212005.634 9  22224077.02048
  25080094.875 3  25080110.703 8  25080111.176 8 131796790.857 3 102698800.896 8
  98419684.534 8  25080109.86747
 25 04 21 00 02 05.0000000  0 10G01G02G04G07G08G09G16G26G27G30      
  22819179.422 5  22819190.051 9  22819193.973 9 119915583.731 5  93440716.726 9
  89547353.823 9  22819189.71946
  21002172.883 6                                 110367108.134 6  86000360.27748
                  21002179.09048
  22438398.000 5  22438407.949 9  22438411.902 9 117914558.239 5  91881463.120 9
  88053066.971 9  22438408.63747
  22309943.633 6  22309951.438 9                 117239521.307 6  91355466.378 9
                  22309951.50848
  20188078.781 6  20188088.879 9  20188087.523 9 106089088.445 6  82666808.560 9
  79222357.150 9  20188088.19149
  22159469.383 6  22159479.520 9  22159479.766 9 116448761.175 6  90739285.869 9
  86958479.080 9  22159479.66448
  23607958.563 4                                 124060749.019 4  96670745.60746
                  23607970.19146
  25207717.313 1  25207737.590 8  25207738.867 8 132467476.604 1 103221382.589 8
  98920494.435 8  25207738.35946
  22226946.367 5  22226957.820 9  22226956.992 9 116803381.780 5  91015626.508 9
  87223310.942 9  22226958.09448
  25076853.898 3  25076868.852 7  25076869.906 8 131779762.357 3 102685531.943 7
  98406968.481 8  25076869.28546
 25 04 21 00 02 10.0000000  0 10G01G02G04G07G08G09G16G26G27G30      
  22816197.570 5  22816207.836 8  22816212.176 9 119899914.374 5  93428506.839 8
  89535652.673 9  22816207.75446
  21000638.820 6                                 110359048.125 6  85994079.75648
                  21000645.31648
  22441032.492 5  22441042.094 9  22441045.902 9 117928400.672 5  91892249.414 9
  88063403.841 9  22441042.69947
  22307218.055 6  22307226.598 9                 117225199.829 6  91344306.785 9
                  22307226.27748
  20189299.570 6  20189309.234 9  20189308.148 9 106095502.875 6  82671806.813 9
  79227147.141 9  20189308.74249
  22160906.625 6  22160917.434 9  22160917.023 9 116456314.885 6  90745171.872 9
  86964119.827 9  22160917.13748
  23609681.039 5                                 124069796.915 5  96677795.88546
                  23609691.73846
  25209563.758 1  25209582.969 8  25209584.391 8 132477173.465 1 103228938.534 8
  98927735.561 8  25209583.40247
  22229827.844 5  22229839.883 9  22229838.605 9 116818524.485 5  91027425.992 9
  87234618.785 9  22229839.61748
  25073614.008 2  25073628.930 8  25073629.652 8 131762733.422 2 102672262.640 8
  98394252.066 8  25073628.86346
 25 04 21 00 02 15.0000000  0 10G01G02G04G07G08G09G16G26G27G30      
  22813216.258 5  22813226.379 9  22813231.055 9 119884247.913 5  93416299.223 9
  89523953.714 9  22813226.47746
  20999108.016 6                                 110351002.025 6  85987810.07648
                  20999114.17648
  22443667.516 5  22443677.152 9  22443680.879 9 117942247.577 5  91903039.187 9
  88073744.044 9  22443677.30547
  22304494.172 6  22304502.148 9                 117210883.555 6  91333151.250 9
                  22304501.84848
  20190521.977 6  20190531.754 9  20190530.789 9 106101927.683 6  82676813.148 9
  79231944.874 9  20190531.37549
  22162346.328 6  22162356.652 9  22162356.387 9 116463879.036 6  90751065.991 9
  86969768.380 9  22162356.56648
  23611402.367 5                                 124078845.013 5  96684846.30146
                  23611413.78546
  25211408.953 1  25211428.836 8  25211429.953 8 132486871.687 1 103236495.581 8
  98934977.678 8  25211429.03146
  22232710.453 5  22232722.223 9  22232721.000 9 116833670.680 5  91039228.195 9
  87245929.227 9  22232721.89548
  25070373.844 2  25070388.340 8  25070389.051 8 131745704.092 2 102658993.083 8
  98381535.390 8  25070388.44146
 25 04 21 00 02 20.0000000  0 10G01G02G04G07G08G09G16G26G27G30      
  22810235.180 5  22810246.008 9  22810250.168 9 119868584.162 5  93404093.732 9
  89512256.783 9  22810245.60946
  20997579.688 6                                 110342969.613 6  85981551.05048
                  20997585.55148
  22446303.273 5  22446312.773 9  22446316.723 9 117956098.717 5  91913832.282 9
  88084087.400 9  22446313.25447
  22301770.914 6  22301778.730 9                 117196572.293 6  91321999.607 9
                  22301778.63348
  20191746.305 6  20191756.742 9  20191755.199 9 106108362.588 6  82681827.353 9
  79236750.155 9  20191755.90649
  22163787.938 5  22163797.965 9  22163797.984 9 116471453.456 5  90756968.136 9
  86975424.582 9  22163797.95348
  23613124.484 4                                 124087893.130 4  96691896.74346
                  23613135.40246
  25213255.039 2  25213274.563 8  25213275.480 8 132496570.960 2 103244053.429 8
  98942220.652 8  25213274.77047
  22235593.805 5  22235604.898 9  22235603.738 9 116848820.125 5  91051032.956 9
  87257242.121 9  22235604.75448
  25067134.031 2  25067148.219 8  25067148.090 8 131728674.168 2 102645722.989 8
  98368818.248 8  25067147.78546
 25 04 21 00 02 25.0000000  0 10G01G02G04G07G08G09G16G26G27G30      
  22807255.070 5  22807265.508 8  22807269.969 9 119852923.200 5  93391890.387 8
  89500561.924 9  22807265.49246
  20996054.000 6                                 110334950.958 6  85975302.75548
                  20996059.78548
  22448940.188 5  22448948.922 9  22448952.961 9 117969954.125 5  91924628.694 9
  88094433.972 9  22448949.73047
  22299047.805 6  22299056.117 9                 117182266.047 6  91310851.920 9
                  22299056.34048
  20192972.953 6  20192982.910 9  20192981.672 9 106114807.665 6  82686849.492 9
  79241563.040 9  20192982.64549
  22165230.805 6  22165241.512 9  22165241.305 9 116479038.153 6  90762878.284 9
  86981088.478 9  22165241.11348
  23614846.070 5                                 124096941.291 5  96698947.26646
                  23614857.15646
  25215100.625 2  25215120.383 8  25215121.770 8 132506271.476 2 103251612.250 8
  98949464.504 8  25215120.48846
  22238476.547 5  22238488.367 9  22238487.422 9 116863972.886 5  91062840.271 9
  87268557.471 9  22238488.21148
  25063891.430 2  25063906.832 7  25063907.453 8 131711643.757 2 102632452.597 7
  98356100.756 8  25063906.78546
 25 04 21 00 02 30.0000000  0 10G01G02G04G07G08G09G16G26G27G30      
  22804275.406 5  22804285.633 8  22804290.273 9 119837265.188 5  93379689.340 8
  89488869.244 9  22804285.66846
  20994530.453 6                                 110326946.198 6  85969065.28548
                  20994536.49648
  22451577.367 5  22451587.125 9  22451590.250 9 117983813.935 5  91935428.527 9
  88104783.810 9  22451587.40247
  22296326.875 6  22296335.086 9                 117167965.023 6  91299708.264 9
                  22296334.74248
  20194201.078 6  20194211.254 9  20194210.098 9 106121263.038 6  82691879.649 9
  79246383.614 9  20194210.91049
  22166676.250 6  22166686.688 9  22166686.563 9 116486633.241 6  90768796.519 9
  86986760.126 9  22166686.43848
  23616568.430 4                                 124105989.636 4  96705997.87646
                  23616579.35546
  25216947.008 2  25216966.563 8  25216967.875 8 132515973.308 2 103259172.076 8
  98956709.317 8  25216966.44947
  22241360.313 5  22241372.824 9  22241371.414 9 116879129.052 5  91074650.270 9
  87279875.391 9  22241372.56648
  25060652.398 3  25060666.156 8  25060666.641 8 131694612.982 3 102619181.841 8
  98343382.976 8  25060665.85946
 25 04 21 00 02 35.0000000  0 10G01G02G04G07G08G09G16G26G27G30      
  22801296.828 5  22801306.500 8  22801311.047 9 119821610.017 5  93367490.504 8
  89477178.711 9  22801306.56346
  20993009.672 6                                 110318955.259 6  85962838.58448
                  20993015.80148
  22454215.578 5  22454225.219 9  22454228.539 9 117997678.049 5  91946231.709 9
  88115136.852 9  22454225.45747
  22293606.203 6  22293614.293 9                 117153669.141 6  91288568.626 9
                  22293614.42248
  20195431.719 6  20195441.582 9  20195440.406 9 106127728.582 6  82696917.737 9
  79251211.772 9  20195441.24649
  22168123.133 6  22168133.438 9  22168134.152 9 116494238.642 6  90774722.807 9
  86992439.479 9  22168133.61348
  23618289.852 5                                 124115038.062 5  96713048.54846
                  23618301.23046
  25218793.383 2  25218812.879 8  25218813.988 8 132525676.328 2 103266732.858 8
  98963955.065 8  25218812.77047
  22244245.945 5  22244257.234 9  22244256.324 9 116894288.581 5  91086462.863 9
  87291195.783 9  22244257.21948
  25057412.133 2  25057425.668 7  25057425.336 8 131677581.702 2 102605910.785 7
  98330664.856 8  25057424.79347
 25 04 21 00 02 40.0000000  0 10G01G02G04G07G08G09G16G26G27G30      
  22798317.836 5  22798328.363 9  22798332.652 9 119805957.746 5  93355293.907 9
  89465490.307 9  22798328.09446
  20991491.938 6                                 110310978.159 6  85956622.66748
                  20991497.75448
  22456854.633 5  22456864.781 9  22456867.418 9 118011546.417 5  91957038.212 9
  88125493.102 9  22456864.49647
  22290887.359 6  22290895.273 9                 117139378.388 6  91277432.963 9
                  22290894.93848
  20196663.844 6  20196674.102 9  20196672.625 9 106134204.337 6  82701963.761 9
  79256047.548 9  20196673.64149
  22169572.594 6  22169583.305 9  22169583.332 9 116501854.346 6  90780657.116 9
  86998126.508 9  22169582.80148
  23620011.961 4                                 124124086.583 4  96720099.32646
                  23620023.17246
  25220639.680 2  25220659.359 8  25220660.531 8 132535380.595 2 103274294.581 8
  98971201.709 8  25220659.14847
  22247130.883 5  22247142.543 9  22247141.656 9 116909451.396 5  91098278.053 9
  87302518.664 9  22247142.75848
  25054168.164 2  25054184.883 8  25054184.492 8 131660550.034 2 102592639.313 8
  98317946.411 8  25054183.91046
 25 04 21 00 02 45.0000000  0 10G01G02G04G07G08G09G16G26G27G30      
  22795340.516 5  22795350.539 9  22795354.496 9 119790308.276 5  93343099.546 9
  89453804.047 9  22795350.08646
  20989976.188 6                                 110303014.873 6  85950417.50648
                  20989982.49648
  22459494.297 5  22459503.684 9  22459507.344 9 118025419.047 5  91967848.049 9
  88135852.501 9  22459504.24246
  22288168.391 6  22288176.930 9                 117125092.734 6  91266301.288 9
                  22288176.41048
  20197898.242 6  20197907.941 9  20197906.906 9 106140690.202 6  82707017.679 9
  79260890.886 9  20197907.89149
  22171023.742 6  22171034.430 9  22171034.520 9 116509480.287 6  90786599.382 9
  87003821.197 9  22171033.90648
  23621734.156 4                                 124133135.198 4  96727150.14846
                  23621745.11746
  25222486.938 2  25222506.375 8  25222507.434 8 132545086.056 2 103281857.241 8
  98978449.258 8  25222506.10246
  22250016.617 5  22250028.988 9  22250027.699 9 116924617.500 5  91110095.752 9
  87313843.963 9  22250028.68848
  25050928.555 4  25050942.270 8  25050943.383 8 131643517.891 4 102579367.570 8
  98305227.612 8  25050942.57046
 25 04 21 00 02 50.0000000  0 10G01G02G04G07G08G09G16G26G27G30      
  22792362.984 5  22792372.617 8  22792377.133 9 119774661.905 5  93330907.567 8
  89442120.063 9  22792372.83646
  20988463.320 6                                 110295065.553 6  85944223.23748
                  20988469.80548
  22462135.188 5  22462145.148 8  22462148.016 8 118039296.069 5  91978661.311 8
  88146215.200 8  22462144.69947
  22285451.047 6  22285459.480 9                 117110812.392 6  91255173.750 9
                  22285459.06648
  20199134.570 6  20199144.586 9  20199143.059 9 106147186.391 6  82712079.654 9
  79265741.941 9  20199143.81349
  22172477.180 6  22172487.184 9  22172487.645 9 116517116.674 6  90792549.802 9
  87009523.686 9  22172487.18048
  23623455.422 5                                 124142184.072 5  96734201.18546
                  23623467.19146
  25224334.297 2  25224353.551 8  25224354.570 8 132554792.962 2 103289421.056 8
  98985697.892 8  25224353.44546
  22252903.469 5  22252915.418 9  22252914.402 9 116939787.034 5  91121916.189 9
  87325171.865 9  22252915.39148
  25047687.094 3  25047702.043 8  25047701.949 8 131626485.488 3 102566095.542 8
  98292508.624 8  25047701.61746
 25 04 21 00 02 55.0000000  0 10G01G02G04G07G08G09G16G26G27G30      
  22789386.078 5  22789396.012 8  22789400.051 9 119759018.320 5  93318717.762 8
  89430438.175 9  22789395.89546
  20986953.461 6                                 110287130.017 6  85938039.71448
                  20986959.52348
  22464776.609 5  22464786.844 8  22464789.426 8 118053177.239 5  91989477.781 8
  88156580.988 8  22464786.31346
  22282734.656 6  22282742.371 9                 117096537.091 6  91244050.155 9
                  22282742.59448
  20200372.805 6  20200382.426 9  20200381.207 9 106153692.636 6  82717149.436 9
  79270600.482 9  20200381.98849
  22173932.617 6  22173942.410 9  22173942.781 9 116524763.203 6  90798508.130 9
  87015233.743 9  22173942.07848
  23625178.008 5                                 124151232.954 5  96741252.21946
                  23625189.21546
  25226181.172 2  25226201.039 8  25226201.453 8 132564501.000 2 103296985.740 8
  98992947.348 8  25226200.92647
  22255790.711 5  22255802.836 9  22255801.609 9 116954959.748 5  91133739.055 9
  87336502.130 9  22255802.73048
  25044445.742 3  25044460.391 7  25044461.242 8 131609452.562 3 102552823.140 7
  98279789.248 8  25044460.38746
 25 04 21 00 03 00.0000000  0 10G01G02G04G07G08G09G16G26G27G30      
  22786409.633 5  22786419.211 8  22786423.832 9 119743377.684 5  93306530.249 8
  89418758.487 9  22786419.29346
  20985445.813 6                                 110279208.379 6  85931867.01348
                  20985452.18848
  22467419.273 5  22467429.125 8  22467431.793 8 118067062.623 5  92000297.553 8
  88166949.931 8  22467428.54746
  22280019.039 6  22280026.941 9                 117082266.984 6  91232930.603 9
                  22280027.03548
  20201612.516 6  20201622.551 9  20201621.168 9 106160209.026 6  82722227.150 9
  79275466.626 9  20201621.93049
  22175389.391 5  22175399.484 9  22175399.785 9 116532419.973 5  90804474.429 9
  87020951.451 9  22175399.27348
  23626899.484 4                                 124160281.922 4  96748303.35746
                  23626910.84846
  25228029.258 2  25228048.559 8  25228048.922 8 132574210.286 2 103304551.378 8
  99000197.780 8  25228048.60547
  22258679.070 5  22258690.875 9  22258689.500 9 116970135.763 5  91145564.487 9
  87347834.829 9  22258690.54748
  25041205.914 3  25041219.051 8  25041219.137 8 131592419.218 3 102539550.460 8
  98267069.604 8  25041218.89546
 25 04 21 00 03 05.0000000  0 10G01G02G04G07G08G09G16G26G27G30      
  22783433.352 5  22783443.441 8  22783448.133 9 119727740.097 5  93294345.130 8
  89407081.070 9  22783443.73846
  20983941.258 6                                 110271300.732 6  85925705.20948
                  20983947.35248
  22470061.766 5  22470071.629 9  22470074.918 9 118080952.349 5  92011120.705 9
  88177322.095 9  22470071.79746
  22277304.414 6  22277312.453 9                 117068002.233 6  91221815.214 9
                  22277312.51248
  20202854.813 6  20202864.402 9  20202863.156 9 106166735.650 6  82727312.841 9
  79280340.397 9  20202863.89549
  22176848.078 6  22176858.855 9  22176859.043 9 116540087.113 6  90810448.815 9
  87026676.901 9  22176858.48048
  23628621.117 4                                 124169331.150 4  96755354.64746
                  23628632.91046
  25229876.172 2  25229896.715 8  25229897.027 8 132583920.956 2 103312118.095 8
  99007449.204 8  25229896.82047
  22261566.680 5  22261579.449 9  22261578.203 9 116985315.125 5  91157392.568 9
  87359170.052 9  22261579.21948
  25037963.008 2  25037977.539 7  25037978.137 8 131575385.648 2 102526277.567 7
  98254349.725 8  25037977.60947
 25 04 21 00 03 10.0000000  0 10G01G02G04G07G08G09G16G26G27G30      
  22780458.563 5  22780468.855 8  22780472.977 9 119712105.428 5  93282162.281 8
  89395405.852 9  22780468.62546
  20982439.242 6                                 110263406.964 6  85919554.22748
                  20982445.35548
  22472706.266 5  22472715.754 9  22472718.785 8 118094846.237 5  92021947.074 9
  88187697.389 8  22472715.68846
  22274590.805 6  22274599.598 9                 117053742.629 6  91210703.845 9
                  22274599.03148
  20204098.219 6  20204108.469 9  20204107.090 9 106173272.347 6  82732406.359 9
  79285221.699 9  20204107.76249
  22178308.914 6  22178319.398 9  22178320.164 9 116547764.414 6  90816431.131 9
  87032409.939 9  22178319.48448
  23630343.719 4                                 124178380.436 4  96762406.02146
                  23630354.86746
  25231725.234 3  25231744.926 8  25231745.266 8 132593632.786 3 103319685.738 8
  99014701.537 8  25231744.79347
  22264456.609 5  22264468.523 9  22264467.398 9 117000497.735 5  91169223.128 9
  87370507.677 9  22264468.38348
  25034721.500 3  25034736.531 8  25034736.289 8 131558351.636 3 102513004.313 8
  98241629.529 8  25034736.03946
 25 04 21 00 03 15.0000000  0 10G01G02G04G07G08G09G16G26G27G30      
  22777484.109 5  22777494.469 9  22777498.398 9 119696473.798 5  93269981.795 9
  89383732.884 9  22777494.07047
  20980939.680 6                                 110255527.172 6  85913414.13548
                  20980945.73448
  22475351.234 5  22475360.488 8  22475363.574 9 118108744.355 5  92032776.768 8
  88198075.834 9  22475360.54747
  22271878.633 6  22271886.613 9                 117039488.334 6  91199596.610 9
                  22271886.53548
  20205344.523 6  20205354.406 9  20205352.969 9 106179819.227 6  82737507.816 9
  79290110.600 9  20205353.58649
  22179771.766 6  22179782.363 9  22179783.066 9 116555451.979 6  90822421.432 9
  87038150.645 9  22179782.37148
  23632065.992 5                                 124187429.910 5  96769457.53746
                  23632077.12146
  25233573.281 3  25233593.359 8  25233593.574 8 132603346.026 3 103327254.447 8
  99021954.878 8  25233593.28947
  22267346.555 5  22267358.402 9  22267357.066 9 117015683.608 5  91181056.268 9
  87381847.762 9  22267358.23848
  25031481.438 3  25031494.230 7  25031495.270 8 131541317.340 3 102499730.828 7
  98228909.118 8  25031494.43846
 25 04 21 00 03 20.0000000  0 10G01G02G04G07G08G09G16G26G27G30      
  22774509.992 5  22774520.070 9  22774524.469 9 119680845.149 5  93257803.629 9
  89372062.150 9  22774520.32846
  20979442.813 6                                 110247661.272 6  85907284.86548
                  20979448.97348
  22477996.414 5  22478006.254 9  22478009.023 8 118122646.629 5  92043609.707 9
  88208457.387 8  22478006.08247
  22269166.961 6  22269175.156 9                 117025239.282 6  91188493.444 9
                  22269175.05948
  20206592.000 6  20206601.688 9  20206600.785 9 106186376.209 6  82742617.152 9
  79295007.047 9  20206601.43849
  22181236.977 6  22181247.156 9  22181248.012 9 116563149.753 6  90828419.698 9
  87043898.968 9  22181247.25048
  23633787.586 4                                 124196479.516 4  96776509.14046
                  23633799.26646
  25235422.578 3  25235442.164 8  25235442.297 8 132613060.473 3 103334824.111 8
  99029209.142 8  25235441.95747
  22270236.539 5  22270248.922 9  22270247.633 9 117030872.710 5  91192891.924 9
  87393190.271 9  22270248.44948
  25028238.523 2  25028253.059 8  25028253.137 8 131524282.609 2 102486457.041 8
  98216188.420 8  25028252.93446
 25 04 21 00 03 25.0000000  0 10G01G02G04G07G08G09G16G26G27G30      
  22771536.711 5  22771546.254 9  22771550.793 9 119665219.501 5  93245627.804 9
  89360393.640 9  22771546.86746
  20977948.453 6                                 110239809.290 6  85901166.44848
                  20977954.74248
  22480642.250 5  22480652.891 9  22480655.465 8 118136553.034 5  92054445.838 9
  88218842.033 8  22480652.53147
  22266456.180 6  22266464.340 9                 117010995.445 6  91177394.367 9
                  22266464.54748
  20207841.781 6  20207851.883 9  20207850.387 9 106192943.269 6  82747734.339 9
  79299911.012 9  20207850.85249
  22182703.664 6  22182714.004 9  22182714.781 9 116570857.696 6  90834425.865 9
  87049654.895 9  22182714.19148
  23635510.141 4                                 124205529.218 4  96783560.79346
                  23635521.35246
  25237271.266 3  25237290.465 8  25237291.645 8 132622776.181 3 103342394.786 8
  99036464.360 8  25237290.93847
  22273127.648 5  22273139.637 9  22273138.660 9 117046065.011 5  91204730.070 9
  87404535.162 9  22273139.58248
  25024998.117 3  25025011.188 7  25025012.039 8 131507247.630 3 102473183.060 7
  98203467.502 8  25025011.16447
 25 04 21 00 03 30.0000000  0 10G01G02G04G07G08G09G16G26G27G30      
  22768563.867 5  22768573.766 9  22768578.207 9 119649596.983 5  93233454.412 9
  89348727.487 9  22768574.00846
  20976456.992 6                                 110231971.443 6  85895059.03948
                  20976463.26648
  22483289.602 5  22483299.883 9  22483302.613 9 118150463.742 5  92065285.337 9
  88229229.863 9  22483299.54747
  22263747.102 6  22263755.379 9                 116996757.011 6  91166299.485 9
                  22263755.02048
  20209093.625 6  20209103.316 9  20209102.016 9 106199520.542 6  82752859.488 9
  79304822.616 9  20209102.63749
  22184172.250 6  22184182.844 9  22184183.551 9 116578575.948 6  90840440.095 9
  87055418.527 9  22184182.92248
  23637231.898 5                                 124214579.226 5  96790612.74346
                  23637243.44146
  25239119.914 2  25239139.379 8  25239140.723 8 132632493.286 2 103349966.541 8
  99043720.635 8  25239139.90647
  22276019.266 5  22276031.469 9  22276030.324 9 117061260.688 5  91216570.827 9
  87415882.550 9  22276031.13748
  25021755.961 3  25021770.180 8  25021769.559 8 131490212.358 3 102459908.834 8
  98190746.385 8  25021769.46546
 25 04 21 00 03 35.0000000  0 10G01G02G04G07G08G09G16G26G27G30      
  22765591.133 5  22765601.328 9  22765605.902 9 119633977.420 5  93221283.313 9
  89337063.515 9  22765601.79346
  20974968.430 6                                 110224147.432 6  85888962.41148
                  20974974.46148
  22485936.938 5  22485948.164 9  22485950.707 8 118164378.437 5  92076127.935 9
  88239620.703 8  22485947.83646
  22261038.375 6  22261046.645 9                 116982523.721 6  91155208.627 9
                  22261046.73848
  20210347.227 7  20210356.730 9  20210355.531 9 106206107.781 7  82757992.405 9
  79309741.652 9  20210356.18849
  22185643.313 6  22185653.559 9  22185654.375 9 116586304.280 6  90846462.155 9
  87061189.661 9  22185653.66848
  23638953.805 5                                 124223629.231 5  96797664.65646
                  23638965.72746
  25240969.906 2  25240988.902 8  25240990.176 8 132642211.559 2 103357539.174 8
  99050977.749 8  25240989.18046
  22278911.594 5  22278923.289 9  22278922.547 9 117076459.425 5  91228413.994 9
  87427232.251 9  22278923.37948
  25018513.539 4  25018527.832 7  25018528.684 8 131473176.700 4 102446634.302 7
  98178024.971 8  25018527.59846
 25 04 21 00 03 40.0000000  0 10G01G02G04G07G08G09G16G26G27G30      
  22762619.750 5  22762629.781 9  22762634.273 9 119618360.802 5  93209114.530 9
  89325401.773 9  22762630.07846
  20973482.391 6                                 110216337.314 6  85882876.61248
                  20973488.26648
  22488586.250 5  22488596.379 9  22488599.316 8 118178297.208 5  92086973.726 9
  88250014.556 8  22488597.07847
  22258330.617 6  22258338.988 9                 116968295.695 6  91144121.865 9
                  22258339.06648
  20211602.195 7  20211612.523 9  20211611.012 9 106212704.999 7  82763133.090 9
  79314668.144 9  20211611.63749
  22187115.547 6  22187126.445 9  22187126.973 9 116594042.671 6  90852492.055 9
  87066968.312 9  22187126.19148
  23640676.750 5                                 124232679.300 5  96804716.62446
                  23640687.94546
  25242818.656 2  25242839.539 8  25242839.770 8 132651931.068 2 103365112.825 8
  99058235.788 8  25242838.68046
  22281804.508 5  22281816.520 9  22281815.414 9 117091661.299 5  91240259.591 9
  87438584.282 9  22281816.18048
  25015272.969 4  25015286.527 8  25015286.227 8 131456140.660 4 102433359.456 8
  98165303.250 8  25015285.42247
 25 04 21 00 03 45.0000000  0 10G01G02G04G07G08G09G16G26G27G30      
  22759648.281 5  22759658.336 9  22759663.211 9 119602747.401 5  93196948.271 9
  89313742.437 9  22759658.77046
  20971998.766 6                                 110208541.347 6  85876801.84048
                  20972004.57848
  22491236.016 5  22491245.863 9  22491248.844 8 118192220.218 5  92097822.797 9
  88260411.588 8  22491246.30147
  22255624.109 6  22255632.473 9                 116954073.116 6  91133039.339 9
                  22255632.57448
  20212859.703 6  20212869.336 9  20212868.363 9 106219312.430 6  82768281.740 9
  79319602.266 9  20212869.00849
  22188590.586 6  22188600.305 9  22188601.445 9 116601791.367 6  90858529.997 9
  87072754.673 9  22188600.78148
  23642399.195 5                                 124241729.661 5  96811768.82146
                  23642410.05946
  25244669.352 2  25244688.438 7  25244689.773 8 132661652.029 2 103372687.530 7
  99065494.899 8  25244688.34846
  22284697.641 5  22284709.980 9  22284708.813 9 117106866.483 5  91252107.772 9
  87449938.781 9  22284709.57048
