     2.10           OBSERVATION DATA    G (GPS)             RINEX VERSION / TYPE
teqc  2000Jul20     WCDA Data collecting20010401 00:12:37UTCPGM / RUN BY / DATE
Solaris 2.7|Ultra 2|cc SC5.0|=+-|*Sparc                     COMMENT
teqc  2000Jul20     WCDA Data collecting20010401 00:12:31UTCCOMMENT
teqc  2000Jul20     WCDA Data collecting20010331 01:12:17UTCCOMMENT
site                                  xxxxxx                MARKER NAME
xxxxxxxxx                                                   MARKER NUMBER
xxxxxxxx            xxxxxxxxxxxxxxxxxx                      OBSERVER / AGENCY
2025                AOA BENCHMARK ACT   3.3.32.2N lk99/07/28REC # / TYPE / VERS
95174               AOAD/M_T        EMRA                    ANT # / TYPE
 00000001.0000 00000001.0000  0000001.0000                  APPROX POSITION XYZ
        0.1000        0.0000        0.0000                  ANTENNA: DELTA H/E/N
     1     1                                                WAVELENGTH FACT L1/2
     7    L1    L2    C1    P1    P2    S1    S2            -# / TYPES OF OBSERV
    30.0000                                                 INTERVAL
STATION INFORMATION EFFECTIVE FROM: 2000/03/15 18:18:00     COMMENT
                                TO: CURRENT DATE (above)    COMMENT
BIT 2 OF LLI FLAGS (+4) DATA COLLECTED UNDER 'AS' CONDITION COMMENT
L1 PHASE CENTRE 0.110m ABOVE ARP                            COMMENT
L2 PHASE CENTRE 0.128m ABOVE ARP                            COMMENT
where ARP is the Antenna Reference Point for HI measurement COMMENT
CONTACT xxxxx@pgc.nrcan.gc.ca FOR ADDITIONAL INFORMATION    COMMENT
    P1 =    P1  TurboRogue; =    Y1  Benchmark              COMMENT
    L1 = L1(CA)                                             COMMENT
    P2 =    P2  TurboRogue; =    Y2  Benchmark              COMMENT
    L2 = L2(P2) TurboRogue; = L2(Y2) Benchmark              COMMENT
 SNR is mapped to RINEX snr flag value [1,4-9]              COMMENT
    SNR:   >316  >100  >31.6  >10  >3.2    >0 bad=0         COMMENT
L1 & L2:      9     8     7     6     5     4     1         COMMENT
  2001     3    31     0     0    0.0000000     GPS         TIME OF FIRST OBS
                                                            END OF HEADER
 01  3 31  0  0  0.0000000  0 10G10G22G17G15G18G 6G26G28G23G 3
  -4571014.571 4  -3561795.634 4  23688534.679    23688535.001    23688542.297
        37.000          27.000
  -8749437.103 5  -6817728.119 5  22540847.552    22540847.117    22540852.845
        66.000          48.000
 -24594284.015 9 -19164312.035 9  20429273.904    20429273.599    20429274.798
       225.000         315.000
 -20480724.142 9 -15958945.809 8  20781861.352    20781861.110    20781863.540
       255.000         209.000
 -14644868.499 6 -11411535.110 5  21937921.945    21937922.064    21937925.421
       127.000          74.000
 -17306788.915 7 -13485772.962 6  21539601.164    21539601.273    21539604.277
       154.000         105.000
 -10350499.255 5  -8065294.350 5  22251730.748    22251730.909    22251734.780
        66.000          58.000
  -1090617.169 4   -849829.068 4  24134689.870    24134690.016    24134698.149
        16.000          17.000
 -16407721.254 8 -12785179.773 7  21490116.573    21490116.135    21490119.224
       201.000         160.000
   -958091.866 4   -746562.115 4  24463642.424    24463641.882    24463650.913
        30.000          13.000
 01  3 31  0  0 30.0000000  0 10G10G22G17G15G18G 6G26G28G23G 3
  -4468380.069 4  -3481820.827 4  23708065.725    23708065.686    23708073.112
        29.000          27.000
  -8728004.983 5  -6801027.809 5  22544925.987    22544925.607    22544931.449
        67.000          47.000
 -24611016.429 9 -19177350.249 9  20426089.451    20426089.322    20426090.749
       222.000         316.000
 -20533081.150 9 -15999743.386 8  20771898.014    20771897.814    20771900.188
       273.000         212.000
 -14733225.122 7 -11480384.220 5  21921108.166    21921108.196    21921111.406
       131.000          71.000
 -17230969.587 7 -13426693.051 6  21554028.811    21554029.069    21554032.475
       141.000         107.000
 -10394039.622 5  -8099221.798 5  22243445.484    22243445.515    22243449.259
        59.000          59.000
  -1151692.648 4   -897420.254 4  24123070.168    24123069.494    24123075.750
        27.000          14.000
 -16471521.590 8 -12834894.204 7  21477975.750    21477975.330    21477978.295
       203.000         154.000
  -1062478.180 4   -827901.871 4  24443776.713    24443776.901    24443787.074
        27.000          12.000
 01  3 31  0  1  0.0000000  0 10G10G22G17G15G18G 6G26G28G23G 3
  -4365574.277 4  -3401712.583 4  23727630.189    23727629.757    23727635.866
        31.000          27.000
  -8706004.611 5  -6783884.706 4  22549112.285    22549111.884    22549117.784
        67.000          41.000
 -24627402.702 9 -19190118.744 9  20422971.337    20422971.119    20422972.557
       230.000         323.000
 -20585110.811 9 -16040285.892 8  20761996.879    20761996.736    20761999.116
       273.000         211.000
 -14821234.966 7 -11548963.120 5  21904360.031    21904360.103    21904363.524
       138.000          72.000
 -17154769.889 7 -13367316.748 6  21568529.312    21568529.376    21568532.610
       135.000         102.000
 -10437004.675 5  -8132700.958 5  22235269.111    22235269.302    22235273.015
        61.000          62.000
  -1212292.775 4   -944641.062 4  24111537.488    24111537.420    24111543.754
        26.000          15.000
 -16534916.251 8 -12884292.528 7  21465911.737    21465911.519    21465914.497
       211.000         154.000
  -1166755.527 4   -909156.708 4  24423933.265    24423933.173    24423943.381
        23.000          13.000
 01  3 31  0  1 30.0000000  0 10G10G22G17G15G18G 6G26G28G23G 3
  -4262599.564 4  -3321472.710 4  23747225.348    23747225.115    23747231.732
        30.000          24.000
  -8683436.800 5  -6766299.463 4  22553407.020    22553406.698    22553412.311
        69.000          41.000
 -24643442.701 9 -19202617.423 9  20419919.345    20419918.947    20419920.286
       226.000         327.000
 -20636812.145 9 -16080572.559 8  20752158.399    20752158.291    20752160.615
       275.000         208.000
 -14908896.305 7 -11617270.452 5  21887678.624    21887678.602    21887681.947
       136.000          73.000
 -17078191.333 7 -13307645.234 6  21583102.093    21583102.220    21583105.078
       139.000          98.000
 -10479392.370 5  -8165730.241 5  22227202.396    22227202.932    22227207.231
        65.000          64.000
  -1272415.512 4   -991489.864 4  24100095.075    24100095.623    24100102.591
        21.000          14.000
 -16597904.185 8 -12933373.923 7  21453925.947    21453925.421    21453928.181
       212.000         156.000
  -1270921.691 4   -990324.905 4  24404111.293    24404110.918    24404120.279
        20.000          11.000
 01  3 31  0  2  0.0000000  0 10G10G22G17G15G18G 6G26G28G23G 3
  -4159458.584 4  -3241103.265 4  23766852.504    23766852.007    23766858.882
        26.000          23.000
  -8660302.809 5  -6748273.020 5  22557809.325    22557809.098    22557815.111
        68.000          49.000
 -24659136.086 9 -19214846.020 9  20416932.715    20416932.503    20416933.904
       228.000         322.000
 -20688184.731 9 -16120603.061 9  20742382.757    20742382.469    20742384.698
       269.000         216.000
 -14996207.017 7 -11685304.580 5  21871064.083    21871064.038    21871066.976
       142.000          73.000
 -17001235.078 7 -13247679.417 6  21597746.104    21597746.392    21597749.599
       137.000          96.000
 -10521200.729 5  -8198308.077 5  22219246.608    22219246.963    22219251.338
        56.000          66.000
  -1332058.997 4  -1037965.283 4  24088745.852    24088745.554    24088752.833
        15.000          11.000
 -16660484.366 9 -12982137.583 7  21442016.641    21442016.435    21442019.479
       220.000         163.000
  -1374974.522 4  -1071404.816 4  24384310.831    24384310.717    24384319.673
        20.000          17.000
 01  3 31  0  2 30.0000000  0 10G10G22G17G15G18G 6G26G28G23G 3
  -4056153.384 4  -3160605.904 4  23786510.244    23786510.251    23786517.776
        32.000          26.000
  -8636604.265 5  -6729806.676 5  22562319.112    22562318.946    22562324.832
        70.000          50.000
 -24674482.640 9 -19226804.359 9  20414012.569    20414012.257    20414013.563
       225.000         321.000
 -20739227.741 9 -16160376.757 9  20732669.263    20732669.107    20732671.419
       270.000         214.000
 -15083165.540 7 -11753064.282 5  21854516.484    21854516.478    21854519.058
       152.000          76.000
 -16923902.517 7 -13187420.384 6  21612462.426    21612462.462    21612465.301
       132.000          92.000
 -10562427.668 5  -8230432.874 5  22211402.114    22211402.107    22211405.627
        59.000          60.000
  -1391221.378 4  -1084065.728 4  24077486.535    24077486.721    24077494.832
        10.000          16.000
 -16722655.714 9 -13030582.675 7  21430186.409    21430185.931    21430188.648
       227.000         166.000
  -1478911.988 4  -1152394.838 4  24364533.055    24364532.161    24364541.033
        23.000          15.000
 01  3 31  0  3  0.0000000  0 10G10G22G17G15G18G 6G26G28G23G 3
  -3952686.559 4  -3079982.568 4  23806199.529    23806199.374    23806206.467
        27.000          22.000
  -8612342.722 5  -6710901.649 5  22566935.701    22566935.537    22566941.593
        70.000          49.000
 -24689482.008 9 -19238492.151 9  20411158.182    20411157.891    20411159.242
       223.000         326.000
 -20789940.574 9 -16199893.176 9  20723018.897    20723018.736    20723021.077
       274.000         218.000
 -15169769.997 7 -11820548.095 5  21838036.381    21838036.210    21838038.667
       157.000          75.000
 -16846194.889 7 -13126869.070 6  21627249.826    21627249.880    21627252.578
       137.000          93.000
 -10603071.203 5  -8262103.064 5  22203667.962    22203667.989    22203671.268
        61.000          60.000
  -1449900.663 4  -1129789.710 4  24066320.376    24066321.110    24066328.928
        23.000          15.000
 -16784417.099 9 -13078708.308 7  21418433.116    21418432.926    21418435.692
       230.000         165.000
  -1582732.282 4  -1233293.563 4  24344775.641    24344775.246    24344784.822
        22.000          20.000
 01  3 31  0  3 30.0000000  0 10G10G22G17G15G18G 6G26G28G23G 3
  -3849060.488 4  -2999235.168 4  23825919.765    23825919.335    23825926.536
        30.000          24.000
  -8587519.025 5  -6691558.568 5  22571660.537    22571660.103    22571665.471
        77.000          51.000
 -24704134.186 9 -19249909.401 9  20408370.152    20408369.797    20408370.992
       220.000         324.000
 -20840322.457 9 -16239151.716 9  20713431.173    20713431.168    20713433.636
       275.000         220.000
 -15256018.619 7 -11887754.628 5  21821622.908    21821623.059    21821625.928
       150.000          73.000
 -16768113.759 7 -13066026.737 6  21642107.845    21642107.961    21642111.189
       133.000          92.000
 -10643129.289 5  -8293317.071 5  22196044.336    22196044.680    22196048.559
        66.000          64.000
  -1508094.740 4  -1175135.707 4  24055248.072    24055247.585    24055253.737
        28.000          13.000
 -16845767.439 9 -13126513.645 8  21406758.617    21406758.182    21406760.976
       226.000         171.000
  -1686433.041 4  -1314099.182 4  24325041.660    24325041.527    24325051.255
        20.000          18.000
 01  3 31  0  4  0.0000000  0 10G10G22G17G15G18G 6G26G28G23G 3
  -3745277.435 4  -2918365.436 4  23845669.429    23845669.024    23845676.352
        26.000          29.000
  -8562134.177 5  -6671778.229 5  22576490.253    22576490.068    22576496.352
        67.000          56.000
 -24718439.013 9 -19261055.991 9  20405647.639    20405647.436    20405648.850
       220.000         323.000
 -20890372.760 9 -16278151.885 9  20703907.096    20703906.871    20703909.179
       271.000         218.000
 -15341909.839 7 -11954682.671 5  21805278.745    21805278.584    21805281.242
       155.000          78.000
 -16689660.436 7 -13004894.378 6  21657037.337    21657037.361    21657040.356
       134.000          87.000
 -10682600.020 5  -8324073.390 5  22188533.341    22188533.683    22188537.407
        67.000          65.000
  -1565802.003 4  -1220102.348 4  24044265.581    24044265.647    24044272.566
        31.000          15.000
 -16906705.824 9 -13173997.974 8  21395162.287    21395161.907    21395164.611
       222.000         171.000
  -1790012.436 4  -1394810.249 4  24305331.677    24305331.336    24305340.331
        25.000          15.000
 01  3 31  0  4 30.0000000  0 10G10G22G17G15G18G 6G26G28G23G 3
  -3641339.789 4  -2837375.233 4  23865449.250    23865448.561    23865454.959
        29.000          25.000
  -8536189.757 5  -6651561.838 5  22581427.473    22581427.352    22581433.429
        61.000          55.000
 -24732396.091 9 -19271931.608 9  20402992.059    20402991.690    20402992.816
       228.000         327.000
 -20940090.921 9 -16316893.244 9  20694446.043    20694445.797    20694448.125
       269.000         224.000
 -15427441.751 7 -12021330.741 5  21789002.119    21789002.188    21789005.041
       147.000          78.000
 -16610836.207 7 -12943473.000 6  21672037.254    21672037.361    21672040.187
       135.000          90.000
 -10721481.480 5  -8354370.548 5  22181134.235    22181134.392    22181138.502
        65.000          63.000
  -1623020.429 4  -1264688.055 4  24033377.623    24033377.495    24033383.972
        33.000          18.000
 -16967231.177 9 -13221160.467 8  21383644.452    21383644.134    21383646.955
       228.000         173.000
  -1893468.270 4  -1475425.019 4  24285644.258    24285644.003    24285653.410
        26.000          13.000
 01  3 31  0  5  0.0000000  0 10G10G22G17G15G18G 6G26G28G23G 3
  -3537249.971 4  -2756266.436 4  23885255.731    23885255.371    23885262.040
        26.000          24.000
  -8509687.499 5  -6630910.791 5  22586470.541    22586470.522    22586476.635
        65.000          51.000
 -24746005.318 9 -19282536.164 9  20400401.996    20400401.888    20400402.984
       225.000         325.000
 -20989475.946 9 -16355375.020 9  20685048.352    20685048.153    20685050.424
       269.000         220.000
 -15512612.534 7 -12087697.419 5  21772794.751    21772794.605    21772797.345
       150.000          79.000
 -16531642.429 7 -12881763.669 6  21687107.581    21687107.614    21687110.568
       134.000          91.000
 -10759771.839 5  -8384207.110 5  22173847.500    22173847.649    22173851.854
        63.000          60.000
  -1679748.113 4  -1308891.344 4  24022582.924    24022582.906    24022589.969
        32.000          20.000
 -17027342.659 9 -13268000.452 8  21372205.580    21372205.210    21372208.084
       226.000         180.000
  -1996798.355 4  -1555941.807 4  24265981.641    24265981.526    24265990.576
        30.000          13.000
 01  3 31  0  5 30.0000000  0 10G10G22G17G15G18G 6G26G28G23G 3
  -3433010.164 4  -2675040.800 4  23905091.364    23905091.088    23905099.010
        29.000          25.000
  -8482628.841 5  -6609826.180 5  22591619.865    22591619.703    22591625.680
        70.000          47.000
 -24759266.490 9 -19292869.514 9  20397878.723    20397878.398    20397879.465
       222.000         323.000
 -21038527.407 9 -16393596.878 9  20675714.048    20675713.922    20675716.251
       280.000         223.000
 -15597420.463 7 -12153781.356 5  21756655.602    21756655.844    21756658.634
       150.000          79.000
 -16452080.624 7 -12819767.555 6  21702247.773    21702247.885    21702250.705
       129.000          93.000
 -10797468.998 5  -8413581.442 5  22166674.116    22166674.131    22166678.238
        59.000          62.000
  -1735983.241 4  -1352710.841 4  24011881.029    24011880.953    24011887.584
        33.000          17.000
 -17087039.102 9 -13314517.036 8  21360845.638    21360845.326    21360848.149
       223.000         176.000
  -2100000.453 4  -1636358.884 4  24246341.944    24246341.756    24246351.672
        29.000          15.000
 01  3 31  0  6  0.0000000  0 11G10G22G17G15G18G 6G26G28G23G 3G21
  -3328622.792 4  -2593700.206 4  23924956.766    23924956.266    23924963.809
        30.000          26.000
  -8455014.605 5  -6588308.645 5  22596875.262    22596874.845    22596880.083
        68.000          43.000
 -24772179.430 9 -19302931.526 9  20395421.018    20395420.832    20395422.267
       225.000         328.000
 -21087244.907 9 -16431558.502 9  20666443.399    20666443.227    20666445.420
       274.000         227.000
 -15681863.877 7 -12219581.262 5  21740586.488    21740586.540    21740589.467
       148.000          80.000
 -16372152.215 6 -12757485.772 6  21717457.426    21717457.514    21717460.598
       125.000          87.000
 -10834571.184 5  -8442492.145 5  22159613.968    22159614.234    22159617.891
        66.000          62.000
  -1791723.713 4  -1396144.893 4  24001274.922    24001274.682    24001280.927
        40.000          21.000
 -17146319.532 9 -13360709.447 8  21349564.942    21349564.605    21349567.318
       225.000         180.000
  -2203072.644 4  -1716674.686 4  24226728.053    24226727.902    24226738.157
        29.000          20.000
   -216544.736 4   -168734.803 4  24916405.449    24916405.480    24916419.478
        16.000          11.000
 01  3 31  0  6 30.0000000  0 11G10G22G17G15G18G 6G26G28G23G 3G21
  -3224090.232 4  -2512246.434 4  23944848.580    23944848.355    23944855.093
        30.000          22.000
  -8426846.217 5  -6566359.319 5  22602235.052    22602234.763    22602240.512
        66.000          46.000
 -24784743.973 9 -19312722.055 9  20393030.375    20393030.106    20393031.324
       224.000         327.000
 -21135627.546 9 -16469259.200 9  20657236.434    20657236.249    20657238.457
       272.000         227.000
 -15765940.746 7 -12285095.552 6  21724587.131    21724587.117    21724590.146
       149.000          85.000
 -16291858.580 6 -12694919.407 6  21732736.434    21732736.745    21732740.299
       117.000          94.000
 -10871076.646 5  -8470937.872 5  22152666.636    22152666.977    22152671.278
        62.000          63.000
  -1846968.034 4  -1439192.324 4  23990761.661    23990761.487    23990767.701
        31.000          19.000
 -17205183.165 9 -13406577.089 8  21338363.399    21338363.073    21338365.845
       235.000         181.000
  -2306012.844 4  -1796887.598 4  24207138.497    24207138.080    24207148.800
        25.000          23.000
   -317911.557 4   -247721.395 4  24897113.732    24897113.844    24897129.202
        23.000           9.000
 01  3 31  0  7  0.0000000  0 11G10G22G17G15G18G 6G26G28G23G 3G21
  -3119414.593 4  -2430681.184 4  23964767.578    23964767.240    23964775.088
        25.000          22.000
  -8398125.407 5  -6543979.519 5  22607700.869    22607700.406    22607705.938
        64.000          46.000
 -24796959.872 9 -19322240.912 9  20390705.786    20390705.543    20390706.687
       230.000         331.000
 -21183674.750 9 -16506698.519 9  20648093.708    20648093.398    20648095.366
       272.000         226.000
 -15849649.565 7 -12350323.048 6  21708657.868    21708657.852    21708660.764
       160.000          89.000
 -16211201.162 6 -12632069.548 6  21748085.602    21748085.612    21748089.067
       117.000          93.000
 -10906983.497 5  -8498917.147 5  22145834.587    22145834.410    22145837.948
        61.000          60.000
  -1901714.422 4  -1481851.770 4  23980343.267    23980343.057    23980349.818
        31.000          19.000
 -17263629.114 9 -13452119.263 8  21327241.297    21327240.993    21327243.769
       239.000         180.000
  -2408818.605 4  -1876995.747 4  24187574.658    24187574.533    24187584.921
        29.000          21.000
   -419188.331 4   -326637.774 4  24877840.591    24877840.718    24877855.685
        18.000           9.000
 01  3 31  0  7 30.0000000  0 11G10G22G17G15G18G 6G26G28G23G 3G21
  -3014598.429 4  -2349006.432 4  23984713.607    23984713.408    23984720.937
        33.000          24.000
  -8368854.060 5  -6521170.733 5  22613270.400    22613270.111    22613276.285
        63.000          47.000
 -24808826.966 9 -19331487.980 9  20388447.534    20388447.272    20388448.369
       224.000         328.000
 -21231385.757 9 -16543875.868 9  20639014.061    20639013.921    20639016.277
       274.000         228.000
 -15932988.593 7 -12415262.392 6  21692799.310    21692799.109    21692801.795
       167.000          90.000
 -16130181.543 6 -12568937.478 6  21763502.672    21763502.980    21763506.620
       112.000          88.000
 -10942290.061 5  -8526428.672 5  22139115.704    22139115.924    22139119.202
        64.000          58.000
  -1955960.728 4  -1524121.541 4  23970020.440    23970020.281    23970026.987
        28.000          18.000
 -17321656.411 9 -13497335.211 8  21316198.889    21316198.656    21316201.293
       237.000         183.000
  -2511487.956 4  -1956997.598 4  24168037.271    24168037.110    24168047.363
        29.000          22.000
   -520373.511 4   -405482.824 4  24858585.665    24858585.549    24858600.288
        24.000          11.000
 01  3 31  0  8  0.0000000  0 11G10G22G17G15G18G 6G26G28G23G 3G21
  -2909644.081 4  -2267224.006 4  24004685.404    24004685.612    24004693.279
        27.000          21.000
  -8339033.341 5  -6497933.867 5  22618945.832    22618945.443    22618951.586
        66.000          50.000
 -24820345.021 9 -19340463.072 9  20386255.511    20386255.316    20386256.584
       231.000         334.000
 -21278760.046 9 -16580790.834 9  20629999.096    20629998.972    20630001.092
       281.000         232.000
 -16015956.353 8 -12479912.437 6  21677010.781    21677010.839    21677013.219
       172.000          91.000
 -16048801.022 6 -12505524.196 6  21778989.296    21778989.316    21778992.790
       113.000          87.000
 -10976994.442 5  -8553470.962 5  22132512.004    22132512.062    22132515.382
        67.000          60.000
  -2009705.283 4  -1566000.328 4  23959793.132    23959792.755    23959800.388
        28.000          23.000
 -17379264.200 9 -13542224.275 8  21305236.795    21305236.376    21305238.742
       241.000         184.000
  -2614018.659 4  -2036891.389 4  24148525.808    24148525.752    24148536.214
        24.000          24.000
   -621465.345 4   -484255.155 4  24839347.243    24839347.395    24839362.437
        23.000          14.000
 01  3 31  0  8 30.0000000  0 11G10G22G17G15G18G 6G26G28G23G 3G21
  -2804553.796 4  -2185335.652 4  24024684.364    24024684.108    24024691.331
        29.000          21.000
  -8308664.349 5  -6474269.778 5  22624724.985    22624724.660    22624730.389
        66.000          54.000
 -24831513.588 9 -19349165.815 9  20384130.136    20384129.941    20384131.258
       229.000         332.000
 -21325796.964 9 -16617442.916 9  20621048.323    20621048.150    20621050.172
       280.000         230.000
 -16098551.039 8 -12544271.777 6  21661293.121    21661293.282    21661295.693
       174.000          89.000
 -15967061.069 6 -12441830.811 5  21794544.063    21794544.154    21794547.555
       112.000          83.000
 -11011094.992 5  -8580042.729 5  22126022.231    22126022.460    22126026.024
        64.000          58.000
  -2062946.626 4  -1607486.967 4  23949661.979    23949662.000    23949668.785
        27.000          18.000
 -17436451.540 9 -13586785.722 8  21294353.915    21294353.693    21294356.300
       241.000         186.000
  -2716408.635 4  -2116675.496 4  24129040.704    24129041.054    24129051.951
        23.000          24.000
   -722462.762 4   -562953.885 4  24820129.289    24820128.820    24820143.401
        17.000          16.000
 01  3 31  0  9  0.0000000  0 11G10G22G17G15G18G 6G26G28G23G 3G21
  -2699329.721 4  -2103343.063 4  24044707.981    24044707.854    24044714.823
        23.000          23.000
  -8277748.748 5  -6450179.759 5  22630607.789    22630607.493    22630613.237
        63.000          44.000
 -24842332.675 9 -19357596.233 9  20382071.287    20382071.044    20382072.350
       221.000         328.000
 -21372495.548 9 -16653831.359 9  20612162.298    20612161.943    20612163.735
       280.000         235.000
 -16180770.775 8 -12608338.946 6  21645646.943    21645647.150    21645649.711
       176.000          91.000
 -15884963.064 6 -12377858.445 5  21810166.868    21810166.961    21810170.342
       113.000          83.000
 -11044589.985 5  -8606142.643 5  22119647.958    22119648.338    22119652.036
        61.000          60.000
  -2115682.669 4  -1648579.936 4  23939626.163    23939626.116    23939632.758
        34.000          16.000
 -17493217.476 9 -13631018.806 8  21283551.646    21283551.370    21283553.997
       242.000         184.000
  -2818655.691 4  -2196348.215 4  24109583.376    24109584.024    24109594.804
        23.000          28.000
   -823364.082 4   -641577.793 4  24800925.981    24800926.456    24800941.611
        21.000          18.000
 01  3 31  0  9 30.0000000  0 11G10G22G17G15G18G 6G26G28G23G 3G21
  -2593974.285 4  -2021248.091 4  24064756.659    24064756.324    24064762.654
        28.000          18.000
  -8246288.543 5  -6425665.369 5  22636594.820    22636594.273    22636599.979
        64.000          48.000
 -24852802.042 9 -19365754.140 9  20380079.079    20380078.866    20380080.075
       220.000         330.000
 -21418855.522 9 -16689955.948 9  20603339.774    20603339.584    20603341.774
       283.000         234.000
 -16262614.068 8 -12672112.782 6  21630072.911    21630072.869    21630075.111
       175.000          91.000
 -15802508.566 6 -12313608.290 5  21825857.954    21825857.837    21825860.881
       113.000          79.000
 -11077477.724 5  -8631769.367 5  22113389.944    22113390.069    22113393.688
        64.000          62.000
  -2167911.857 4  -1689277.938 4  23929687.646    23929687.403    23929694.502
        34.000          21.000
 -17549561.127 9 -13674922.837 8  21272829.831    21272829.441    21272832.101
       245.000         185.000
  -2920757.655 4  -2275907.872 4  24090155.789    24090155.303    24090164.750
        20.000          22.000
   -924168.145 4   -720125.905 4  24781743.748    24781743.968    24781758.590
        18.000          12.000
 01  3 31  0 10  0.0000000  0 11G10G22G17G15G18G 6G26G28G23G 3G21
  -2488490.039 4  -1939052.786 4  24084830.534    24084829.993    24084835.922
        29.000          18.000
  -8214285.435 5  -6400727.921 5  22642685.274    22642684.747    22642690.154
        68.000          46.000
 -24862921.555 9 -19373639.424 9  20378153.343    20378153.111    20378154.376
       216.000         329.000
 -21464875.960 9 -16725815.958 9  20594582.324    20594582.124    20594584.270
       270.000         235.000
 -16344079.159 8 -12735591.913 6  21614570.501    21614570.512    21614572.624
       178.000          90.000
 -15719699.173 6 -12249081.602 5  21841616.090    21841615.953    21841619.068
       108.000          80.000
 -11109756.581 5  -8656921.646 5  22107247.671    22107247.779    22107251.058
        64.000          59.000
  -2219632.375 4  -1729579.532 4  23919845.030    23919845.066    23919851.842
        25.000          18.000
 -17605481.635 9 -13718497.151 8  21262188.437    21262188.121    21262190.551
       245.000         182.000
  -3022712.423 4  -2355352.857 4  24070752.450    24070753.204    24070762.855
        27.000          18.000
  -1024873.010 4   -798596.780 4  24762581.455    24762581.335    24762594.506
        20.000          15.000
 01  3 31  0 10 30.0000000  0 11G10G22G17G15G18G 6G26G28G23G 3G21
  -2382878.713 4  -1856758.408 4  24104926.677    24104926.445    24104933.644
        25.000          19.000
  -8181740.456 5  -6375368.271 5  22648878.060    22648877.462    22648883.395
        72.000          49.000
 -24872691.017 9 -19381251.948 9  20376294.157    20376293.969    20376295.285
       216.000         335.000
 -21510556.445 9 -16761411.076 9  20585889.198    20585889.116    20585891.282
       278.000         228.000
 -16425164.398 8 -12798775.061 6  21599140.104    21599140.093    21599142.417
       183.000          92.000
 -15636536.389 6 -12184279.550 5  21857441.325    21857441.364    21857444.449
       110.000          75.000
 -11141424.847 5  -8681598.137 5  22101220.877    22101221.257    22101224.755
        68.000          63.000
  -2270842.637 4  -1769483.531 4  23910100.178    23910100.041    23910106.638
        26.000          16.000
 -17660978.287 9 -13761741.185 8  21251627.722    21251627.365    21251629.798
       251.000         191.000
  -3124517.743 4  -2434681.389 4  24051380.174    24051380.324    24051389.666
        32.000          21.000
  -1125477.827 4   -876989.707 4  24743435.799    24743435.737    24743449.839
        20.000          13.000
 01  3 31  0 11  0.0000000  0 11G10G22G17G15G18G 6G26G28G23G 3G21
  -2277142.817 4  -1774367.035 4  24125047.781    24125047.299    24125055.063
        26.000          19.000
  -8148655.058 5  -6349587.495 5  22655173.249    22655173.200    22655179.472
        67.000          51.000
 -24882110.133 9 -19388591.507 9  20374501.729    20374501.480    20374502.874
       217.000         331.000
 -21555896.217 9 -16796740.699 9  20577261.511    20577261.322    20577263.294
       272.000         229.000
 -16505868.202 8 -12861660.977 6  21583782.404    21583782.492    21583785.004
       176.000          93.000
 -15553021.819 6 -12119203.370 5  21873334.342    21873334.133    21873336.855
       112.000          72.000
 -11172480.961 5  -8705797.622 5  22095311.148    22095311.387    22095314.937
        65.000          60.000
  -2321540.842 4  -1808988.574 4  23900451.028    23900451.018    23900458.940
        28.000          17.000
 -17716050.249 9 -13804654.298 8  21241147.690    21241147.443    21241149.900
       250.000         193.000
  -3226171.607 4  -2513891.918 4  24032036.258    24032036.041    24032044.536
        25.000          14.000
  -1225980.626 4   -955303.155 4  24724310.693    24724310.869    24724324.515
        24.000          14.000
 01  3 31  0 11 30.0000000  0 11G10G22G17G15G18G 6G26G28G23G 3G21
  -2171284.502 4  -1691880.195 4  24145192.229    24145191.867    24145199.440
        24.000          17.000
  -8115031.166 5  -6323387.120 5  22661572.685    22661572.223    22661577.829
        64.000          46.000
 -24891179.002 9 -19395658.165 9  20372775.944    20372775.751    20372777.146
       213.000         333.000
 -21600894.838 9 -16831804.491 9  20568698.522    20568698.361    20568700.307
       269.000         234.000
 -16586188.938 8 -12924248.401 6  21568498.321    21568498.152    21568500.368
       174.000          93.000
 -15469156.748 6 -12053854.081 5  21889292.527    21889292.698    21889296.032
       104.000          76.000
 -11202923.476 5  -8729518.985 5  22089517.897    22089518.110    22089521.662
        68.000          57.000
  -2371725.290 4  -1848093.261 4  23890903.136    23890903.231    23890909.441
        39.000          21.000
 -17770696.768 9 -13847235.900 8  21230748.877    21230748.509    21230750.987
       249.000         192.000
  -3327671.797 4  -2592982.703 4  24012721.118    24012720.820    24012730.039
        19.000          20.000
  -1326379.933 4  -1033536.010 4  24705205.243    24705205.077    24705218.536
        27.000          12.000
 01  3 31  0 12  0.0000000  0 11G10G22G17G15G18G 6G26G28G23G 3G21
  -2065306.325 4  -1609299.972 4  24165359.263    24165358.871    24165366.975
        21.000          23.000
  -8080870.875 5  -6296768.768 5  22668072.208    22668072.147    22668078.338
        61.000          47.000
 -24899897.303 9 -19402451.670 9  20371117.184    20371116.900    20371118.162
       216.000         340.000
 -21645551.571 9 -16866601.873 9  20560200.695    20560200.462    20560202.326
       268.000         236.000
 -16666125.185 8 -12986536.219 6  21553286.929    21553286.762    21553288.861
       177.000          98.000
 -15384942.696 6 -11988232.859 5  21905318.511    21905318.437    21905321.824
       112.000          75.000
 -11232750.671 5  -8752760.874 5  22083842.296    22083842.379    22083845.655
        68.000          60.000
  -2421394.488 4  -1886796.453 4  23881451.135    23881450.852    23881457.261
        34.000          18.000
 -17824917.033 9 -13889485.355 8  21220430.822    21220430.584    21220433.052
       252.000         196.000
  -3429016.191 4  -2671952.028 4  23993435.754    23993435.784    23993443.951
        17.000          20.000
  -1426674.428 4  -1111687.194 4  24686119.880    24686119.998    24686133.197
        24.000          15.000
 01  3 31  0 12 30.0000000  0 11G10G22G17G15G18G 6G26G28G23G 3G21
  -1959210.385 4  -1526628.047 4  24185549.763    24185549.068    24185557.367
        26.000          28.000
  -8046175.651 5  -6269733.586 5  22674674.929    22674674.607    22674680.951
        66.000          48.000
 -24908264.854 9 -19408971.854 9  20369524.841    20369524.619    20369525.841
       216.000         331.000
 -21689865.742 9 -16901132.330 9  20551767.743    20551767.617    20551769.665
       271.000         236.000
 -16745675.225 8 -13048523.096 6  21538148.714    21538148.759    21538150.773
       178.000          97.000
 -15300381.294 6 -11922340.977 5  21921409.640    21921409.858    21921413.489
       102.000          76.000
 -11261961.088 5  -8775522.162 5  22078284.180    22078284.255    22078287.063
        73.000          61.000
  -2470546.754 4  -1925096.848 4  23872097.504    23872097.369    23872104.217
        28.000          19.000
 -17878710.051 9 -13931401.896 8  21210194.557    21210194.150    21210196.505
       250.000         192.000
  -3530202.282 4  -2750798.093 4  23974181.428    23974181.441    23974188.915
        31.000          19.000
  -1526862.684 4  -1189755.571 4  24667054.293    24667054.489    24667068.001
        20.000          15.000
 01  3 31  0 13  0.0000000  0 11G10G22G17G15G18G 6G26G28G23G 3G21
  -1852998.916 4  -1443866.078 4  24205761.296    24205760.784    24205768.350
        21.000          19.000
  -8010946.782 5  -6242282.584 5  22681378.946    22681378.542    22681384.722
        61.000          48.000
 -24916281.473 9 -19415218.572 9  20367999.649    20367999.314    20368000.366
       216.000         331.000
 -21733836.703 9 -16935395.358 9  20543400.401    20543400.224    20543402.222
       274.000         238.000
 -16824837.359 8 -13110207.718 6  21523084.669    21523084.568    21523086.544
       178.000          98.000
 -15215474.075 6 -11856179.645 5  21937566.655    21937566.852    21937570.808
        98.000          76.000
 -11290553.187 5  -8797801.637 5  22072842.971    22072843.205    22072845.995
        70.000          62.000
  -2519180.607 4  -1962993.283 4  23862841.696    23862841.801    23862849.003
        26.000          20.000
 -17932075.055 9 -13972984.924 8  21200039.418    21200039.056    21200041.334
       256.000         196.000
  -3631228.161 4  -2829519.289 4  23954956.726    23954956.437    23954964.838
        33.000          27.000
  -1626943.340 4  -1267740.095 4  24648009.835    24648009.245    24648022.049
        18.000          14.000
 01  3 31  0 13 30.0000000  0 11G10G22G17G15G18G 6G26G28G23G 3G21
  -1746673.888 4  -1361015.544 4  24225993.308    24225992.746    24226001.076
        23.000          19.000
  -7975185.954 5  -6214417.066 5  22688183.473    22688183.391    22688189.369
        67.000          44.000
 -24923946.925 9 -19421191.622 9  20366540.626    20366540.384    20366541.648
       221.000         335.000
 -21777463.961 9 -16969390.562 9  20535098.271    20535098.173    20535100.219
       276.000         241.000
 -16903609.964 8 -13171588.805 6  21508094.578    21508094.510    21508096.519
       172.000         101.000
 -15130222.388 6 -11789749.866 5  21953790.022    21953790.064    21953793.796
        99.000          73.000
 -11318525.566 5  -8819598.221 5  22067519.358    22067519.633    22067522.821
        69.000          64.000
  -2567294.144 4  -2000484.248 4  23853686.741    23853686.544    23853693.330
        25.000          21.000
 -17985011.284 9 -14014233.840 8  21189965.951    21189965.534    21189967.826
       252.000         196.000
  -3732091.671 4  -2908113.978 4  23935763.895    23935763.375    23935770.359
        34.000          21.000
  -1726914.733 4  -1345639.505 4  24628984.953    24628985.129    24628997.892
        25.000          15.000
 01  3 31  0 14  0.0000000  0 11G10G22G17G15G18G 6G26G28G23G 3G21
  -1640237.892 4  -1278078.615 4  24246247.619    24246247.551    24246255.227
        28.000          20.000
  -7938895.329 5  -6186138.722 5  22695089.481    22695089.324    22695095.681
        67.000          48.000
 -24931260.965 9 -19426890.831 9  20365148.836    20365148.520    20365149.721
       221.000         330.000
 -21820746.745 9 -17003117.347 9  20526861.926    20526861.819    20526863.654
       286.000         248.000
 -16981991.459 8 -13232665.135 6  21493178.974    21493178.974    21493180.877
       186.000          99.000
 -15044628.124 6 -11723053.154 5  21970077.683    21970077.925    21970081.991
        98.000          73.000
 -11345876.739 5  -8840910.751 5  22062314.973    22062315.253    22062318.303
        74.000          65.000
  -2614885.988 4  -2037568.741 4  23844630.939    23844630.807    23844637.640
        35.000          23.000
 -18037518.150 9 -14055148.189 8  21179973.813    21179973.604    21179975.910
       261.000         198.000
  -3832790.329 4  -2986580.209 4  23916600.232    23916600.030    23916608.373
        36.000          22.000
  -1826775.372 4  -1423452.624 4  24609981.269    24609981.172    24609995.226
        22.000          17.000
 01  3 31  0 14 30.0000000  0 11G10G22G17G15G18G 6G26G28G23G 3G21
  -1533692.695 4  -1195056.512 4  24266520.802    24266521.096    24266530.320
        19.000          20.000
  -7902076.939 5  -6157449.132 5  22702095.355    22702095.294    22702102.100
        58.000          49.000
 -24938223.726 9 -19432316.340 9  20363823.897    20363823.592    20363824.721
       216.000         330.000
 -21863684.451 9 -17036575.243 9  20518691.154    20518690.997    20518692.829
       284.000         253.000
 -17059980.257 8 -13293435.477 6  21478337.897    21478337.964    21478339.802
       192.000         101.000
 -14958692.888 6 -11656090.737 5  21986431.164    21986431.135    21986434.911
        90.000          71.000
 -11372605.383 5  -8861738.202 5  22057228.532    22057228.710    22057231.982
        72.000          66.000
  -2661954.430 4  -2074245.397 4  23835673.774    23835673.700    23835680.054
        30.000          21.000
 -18089595.000 9 -14095727.458 8  21170064.215    21170063.800    21170065.956
       254.000         201.000
  -3933321.720 4  -3064916.152 4  23897469.324    23897469.411    23897476.750
        38.000          23.000
  -1926524.127 4  -1501178.511 4  24591000.624    24590999.822    24591012.398
        25.000          13.000
 01  3 31  0 15  0.0000000  0 11G10G22G17G15G18G 6G26G28G23G 3G21
  -1427040.621 4  -1111951.160 4  24286816.462    24286816.568    24286825.841
        22.000          20.000
  -7864732.151 5  -6128349.379 5  22709202.787    22709202.416    22709209.121
        59.000          52.000
 -24944835.026 9 -19437467.978 9  20362565.830    20362565.553    20362566.605
       222.000         335.000
 -21906276.212 9 -17069763.572 9  20510586.135    20510585.919    20510587.895
       284.000         252.000
 -17137575.056 8 -13353898.811 6  21463572.048    21463572.088    21463573.863
       197.000         104.000
 -14872418.121 6 -11588863.757 5  22002848.830    22002848.860    22002852.384
        98.000          70.000
 -11398709.970 5  -8882079.368 5  22052259.917    22052260.504    22052264.335
        67.000          68.000
  -2708498.322 4  -2110513.313 4  23826815.737    23826816.096    23826823.262
        27.000          22.000
 -18141241.000 9 -14135971.006 8  21160236.125    21160235.797    21160238.049
       263.000         202.000
  -4033683.964 4  -3143120.287 4  23878370.368    23878370.332    23878378.613
        31.000          29.000
  -2026159.795 4  -1578816.273 4  24572040.368    24572039.450    24572052.218
        19.000          13.000
 01  3 31  0 15 30.0000000  0 11G10G22G17G15G18G 6G26G28G23G 3G21
  -1320284.015 4  -1028764.383 4  24307132.499    24307132.687    24307140.442
        21.000          15.000
  -7826862.438 5  -6098840.598 5  22716409.072    22716408.843    22716415.384
        63.000          48.000
 -24951094.679 9 -19442345.618 9  20361374.482    20361374.324    20361375.470
       219.000         332.000
 -21948521.696 9 -17102682.081 9  20502547.166    20502546.937    20502548.769
       284.000         250.000
 -17214774.144 8 -13414053.797 6  21448881.472    21448881.491    21448883.314
       200.000         107.000
 -14785805.330 6 -11521373.375 5  22019330.519    22019330.785    22019334.407
        96.000          73.000
 -11424189.220 5  -8901933.260 5  22047412.486    22047412.680    22047415.608
        74.000          66.000
  -2754515.900 4  -2146371.125 4  23818059.847    23818059.503    23818066.542
        31.000          25.000
 -18192455.391 9 -14175878.225 8  21150490.209    21150489.973    21150492.173
       260.000         200.000
  -4133874.732 4  -3221190.801 4  23859304.298    23859304.390    23859312.792
        29.000          30.000
  -2125680.055 4  -1656364.059 4  24553100.718    24553100.496    24553113.594
        19.000          13.000
 01  3 31  0 16  0.0000000  0 11G10G22G17G15G18G 6G26G28G23G 3G21
  -1213424.757 4   -945497.542 4  24327468.075    24327467.721    24327475.205
        19.000          14.000
  -7788469.779 5  -6068924.321 5  22723714.605    22723714.631    22723721.111
        69.000          44.000
 -24957002.381 9 -19446949.004 9  20360250.346    20360250.073    20360251.232
       223.000         334.000
 -21990420.375 9 -17135330.347 9  20494573.901    20494573.841    20494575.601
       292.000         248.000
 -17291575.962 8 -13473899.234 6  21434266.283    21434266.461    21434268.446
       202.000         113.000
 -14698856.194 6 -11453620.920 5  22035876.587    22035876.722    22035880.609
        91.000          73.000
 -11449041.642 5  -8921298.724 5  22042683.554    22042683.699    22042686.703
        78.000          72.000
  -2800005.536 4  -2181817.523 4  23809402.940    23809403.017    23809410.167
        31.000          23.000
 -18243237.553 9 -14215448.652 8  21140826.837    21140826.418    21140828.404
       259.000         200.000
  -4233891.846 4  -3299125.978 4  23840271.807    23840271.573    23840280.234
        29.000          26.000
  -2225084.018 4  -1733821.253 4  24534184.790    24534184.811    24534196.971
        24.000          15.000
 01  3 31  0 16 30.0000000  0 11G10G22G17G15G18G 6G26G28G23G 3G21
  -1106465.161 4   -862152.565 4  24347821.568    24347821.287    24347829.345
        21.000          19.000
  -7749556.593 5  -6038602.456 5  22731120.417    22731119.909    22731125.700
        63.000          43.000
 -24962557.987 9 -19451278.024 9  20359193.183    20359192.987    20359194.036
       221.000         327.000
 -22031971.382 9 -17167707.703 9  20486667.067    20486666.919    20486668.657
       286.000         250.000
 -17367979.094 8 -13533434.014 6  21419727.010    21419727.084    21419729.143
       194.000         111.000
 -14611572.398 6 -11385607.706 5  22052486.510    22052486.690    22052490.185
        93.000          67.000
 -11473266.124 5  -8940174.872 5  22038073.299    22038073.566    22038076.611
        74.000          67.000
  -2844965.802 4  -2216851.456 4  23800847.695    23800847.570    23800854.231
        34.000          22.000
 -18293586.746 9 -14254681.701 8  21131245.390    21131245.125    21131247.246
       259.000         200.000
  -4333732.878 4  -3376923.993 4  23821272.396    23821272.338    23821280.663
        26.000          20.000
  -2324370.570 4  -1811186.941 4  24515290.760    24515290.625    24515302.920
        22.000          14.000
 01  3 31  0 17  0.0000000  0 11G10G22G17G15G18G 6G26G28G23G 3G21
   -999407.702 4   -778731.343 4  24368194.099    24368193.902    24368202.220
        23.000          19.000
  -7710124.529 5  -6007876.272 4  22738623.971    22738623.683    22738629.619
        55.000          39.000
 -24967761.393 9 -19455332.618 9  20358203.100    20358202.785    20358203.861
       220.000         331.000
 -22073174.331 9 -17199813.847 9  20478826.292    20478826.188    20478828.070
       288.000         252.000
 -17443981.929 8 -13592656.875 6  21405264.101    21405264.115    21405266.207
       198.000         113.000
 -14523955.456 6 -11317334.890 5  22069159.358    22069159.453    22069163.361
        90.000          68.000
 -11496861.310 5  -8958560.670 5  22033583.170    22033583.292    22033586.762
        76.000          72.000
  -2889395.253 4  -2251471.763 4  23792392.538    23792392.467    23792399.623
        29.000          22.000
 -18343502.375 9 -14293576.907 8  21121746.588    21121746.353    21121748.633
       266.000         206.000
  -4433395.760 4  -3454583.177 4  23802308.074    23802307.701    23802314.859
        26.000          22.000
  -2423537.994 4  -1888459.771 4  24496420.554    24496419.961    24496432.219
        24.000          16.000
 01  3 31  0 17 30.0000000  0 11G10G22G17G15G18G 6G26G28G23G 3G21
   -892254.426 4   -695235.427 4  24388584.982    24388584.089    24388592.887
        29.000          15.000
  -7670174.979 5  -5976746.857 5  22746226.321    22746226.001    22746232.031
        58.000          44.000
 -24972612.290 9 -19459112.531 9  20357279.660    20357279.506    20357280.770
       219.000         328.000
 -22114028.591 9 -17231648.278 9  20471051.901    20471051.724    20471053.721
       285.000         254.000
 -17519582.978 8 -13651566.668 6  21390877.577    21390877.629    21390879.587
       204.000         118.000
 -14436007.008 6 -11248803.762 5  22085895.677    22085895.587    22085899.554
        93.000          66.000
 -11519825.981 5  -8976455.162 5  22029213.397    22029213.491    22029216.753
        76.000          70.000
  -2933292.526 4  -2285677.371 4  23784039.242    23784039.207    23784045.794
        23.000          27.000
 -18392984.074 9 -14332133.987 8  21112330.524    21112330.249    21112332.543
       267.000         209.000
  -4532878.117 4  -3532101.705 4  23783376.088    23783375.715    23783383.938
        28.000          25.000
  -2522584.821 4  -1965638.641 4  24477571.617    24477571.424    24477583.330
        23.000          20.000
 01  3 31  0 18  0.0000000  0 11G10G22G17G15G18G 6G26G28G23G 3G21
   -785007.420 4   -611666.482 4  24408992.337    24408992.367    24409001.519
        20.000          17.000
  -7629709.846 5  -5945215.682 5  22753926.151    22753926.038    22753932.581
        57.000          47.000
 -24977110.547 9 -19462617.660 9  20356423.686    20356423.492    20356424.737
       221.000         333.000
 -22154533.510 9 -17263210.503 9  20463343.868    20463343.748    20463345.858
       289.000         257.000
 -17594780.813 8 -13710162.266 6  21376567.813    21376567.858    21376569.716
       204.000         118.000
 -14347728.752 6 -11180015.632 5  22102694.382    22102694.597    22102698.333
        94.000          65.000
 -11542158.922 5  -8993857.390 5  22024962.937    22024963.289    22024966.895
        69.000          72.000
  -2976656.246 4  -2319467.191 4  23775788.188    23775788.256    23775794.181
        37.000          27.000
 -18442031.004 9 -14370352.287 8  21102997.069    21102996.818    21102998.990
       267.000         203.000
  -4632177.955 4  -3609477.995 4  23764479.718    23764479.870    23764487.746
        38.000          21.000
  -2621509.996 4  -2042722.676 4  24458745.734    24458745.840    24458757.396
        28.000          17.000
 01  3 31  0 18 30.0000000  0 11G10G22G17G15G18G 6G26G28G23G 3G21
   -677668.716 4   -528026.022 4  24429418.891    24429418.614    24429427.929
        19.000          17.000
  -7588731.365 5  -5913284.499 5  22761724.267    22761723.963    22761730.564
        58.000          44.000
 -24981255.964 9 -19465847.849 9  20355634.972    20355634.741    20355635.911
       218.000         336.000
 -22194688.306 9 -17294499.903 9  20455703.075    20455702.764    20455704.656
       281.000         257.000
 -17669573.809 8 -13768442.406 6  21362335.308    21362335.281    21362337.063
       199.000         121.000
 -14259122.336 6 -11110971.787 5  22119555.939    22119555.927    22119559.589
        94.000          62.000
 -11563858.834 5  -9010766.364 5  22020833.903    22020834.008    22020837.206
        73.000          70.000
  -3019484.909 4  -2352840.126 4  23767636.746    23767636.776    23767644.174
        30.000          25.000
 -18490642.461 9 -14408231.255 8  21093746.925    21093746.575    21093748.363
       268.000         202.000
  -4731292.783 5  -3686710.167 4  23745619.709    23745619.479    23745626.884
        44.000          22.000
  -2720311.554 4  -2119710.425 4  24439945.330    24439945.024    24439956.137
        28.000          17.000
 01  3 31  0 19  0.0000000  0 11G10G22G17G15G18G 6G26G28G23G 3G21
   -570240.355 4   -444315.792 4  24449862.775    24449861.903    24449870.726
        16.000          20.000
  -7547241.797 5  -5880955.076 5  22769619.614    22769619.304    22769625.615
        59.000          45.000
 -24985048.411 9 -19468802.996 9  20354913.533    20354913.250    20354914.230
       223.000         333.000
 -22234492.543 9 -17325516.135 9  20448128.379    20448128.207    20448129.996
       276.000         249.000
 -17743960.501 8 -13826405.951 6  21348179.944    21348179.967    21348181.717
       201.000         123.000
 -14170189.247 5 -11041673.389 5  22136479.662    22136479.535    22136483.306
        84.000          65.000
 -11584924.537 5  -9027181.142 5  22016825.023    22016825.290    22016828.239
        73.000          68.000
  -3061777.202 4  -2385795.116 4  23759589.321    23759589.252    23759595.895
        36.000          23.000
 -18538817.882 9 -14445770.464 8  21084579.311    21084579.014    21084580.823
       272.000         205.000
  -4830220.078 4  -3763796.185 4  23726793.239    23726793.461    23726801.718
        39.000          25.000
  -2818988.636 4  -2196601.203 4  24421166.532    24421166.378    24421177.845
        28.000          15.000
 01  3 31  0 19 30.0000000  0 11G10G22G17G15G18G 6G26G28G23G 3G21
   -462724.679 4   -360537.515 4  24470321.669    24470321.686    24470330.295
        22.000          14.000
  -7505242.701 5  -5848228.610 5  22777612.585    22777612.077    22777618.217
        56.000          49.000
 -24988487.880 9 -19471483.103 9  20354258.816    20354258.555    20354259.730
       221.000         332.000
 -22273945.602 9 -17356258.717 9  20440620.624    20440620.397    20440622.155
       278.000         252.000
 -17817939.633 8 -13884051.912 6  21334102.034    21334101.928    21334103.956
       199.000         123.000
 -14080931.346 6 -10972121.924 5  22153464.104    22153464.463    22153468.690
        85.000          63.000
 -11605355.054 5  -9043100.969 5  22012937.698    22012937.795    22012940.578
        79.000          74.000
  -3103531.823 4  -2418331.137 4  23751643.985    23751643.819    23751650.045
        34.000          19.000
 -18586556.697 9 -14482969.455 8  21075494.987    21075494.544    21075496.297
       274.000         203.000
  -4928957.621 4  -3840734.322 4  23708004.214    23708004.085    23708011.660
        34.000          22.000
  -2917539.839 4  -2273393.904 4  24402412.190    24402412.228    24402423.505
        29.000          13.000
 01  3 31  0 20  0.0000000  0 11G10G22G17G15G18G 6G26G28G23G 3G21
   -355123.749 4   -276692.770 4  24490799.114    24490798.555    24490806.493
        20.000          16.000
  -7462735.774 5  -5815106.433 5  22785701.046    22785700.609    22785707.390
        54.000          47.000
 -24991574.164 9 -19473887.999 9  20353671.349    20353671.102    20353672.388
       216.000         331.000
 -22313046.989 9 -17386727.263 9  20433179.709    20433179.569    20433181.310
       274.000         257.000
 -17891509.580 9 -13941379.029 6  21320101.927    21320102.004    21320103.800
       214.000         121.000
 -13991350.303 5 -10902318.650 5  22170511.152    22170511.356    22170515.485
        82.000          65.000
 -11625149.196 5  -9058524.926 5  22009170.527    22009170.757    22009173.702
        77.000          68.000
  -3144747.192 4  -2450446.926 4  23743800.283    23743800.333    23743807.609
        33.000          30.000
 -18633858.148 9 -14519827.643 8  21066493.525    21066493.239    21066495.089
       273.000         205.000
  -5027503.315 4  -3917522.974 4  23689250.930    23689251.117    23689258.807
        36.000          25.000
  -3015963.806 4  -2350087.442 4  24383681.893    24383682.290    24383694.394
        24.000          17.000
 01  3 31  0 20 30.0000000  0 11G10G22G17G15G18G 6G26G28G23G 3G21
   -247439.753 4   -192783.305 4  24511289.786    24511289.540    24511297.763
        18.000          16.000
  -7419723.041 5  -5781590.120 5  22793886.610    22793886.120    22793892.521
        58.000          47.000
 -24994307.001 8 -19476017.484 9  20353151.327    20353151.115    20353152.336
       212.000         329.000
 -22351795.860 9 -17416921.120 9  20425806.036    20425805.872    20425807.577
       280.000         255.000
 -17964669.021 9 -13998386.279 6  21306180.248    21306180.130    21306181.924
       213.000         123.000
 -13901447.688 5 -10832264.812 5  22187619.095    22187619.354    22187623.564
        81.000          59.000
 -11644305.822 5  -9073452.121 5  22005524.760    22005525.093    22005528.657
        74.000          77.000
  -3185422.153 4  -2482141.653 4  23736060.120    23736059.904    23736066.974
        33.000          24.000
 -18680721.844 9 -14556344.723 9  21057575.662    21057575.390    21057577.386
       273.000         217.000
  -5125854.823 4  -3994160.324 4  23670535.159    23670535.185    23670543.188
        36.000          26.000
  -3114258.514 4  -2426680.244 4  24364977.031    24364976.699    24364988.756
        16.000          20.000
 01  3 31  0 21  0.0000000  0 11G10G22G17G15G18G 6G26G28G23G 3G21
   -139674.584 4   -108810.596 4  24531796.702    24531796.562    24531804.786
        20.000          13.000
  -7376206.916 5  -5747681.567 5  22802166.554    22802166.496    22802172.695
        57.000          45.000
 -24996686.388 9 -19477871.546 9  20352698.656    20352698.437    20352699.533
       217.000         330.000
 -22390191.781 9 -17446839.956 9  20418499.573    20418499.346    20418501.071
       273.000         254.000
 -18037416.514 9 -14055072.528 6  21292336.691    21292336.697    21292338.487
       221.000         126.000
 -13811225.368 5 -10761961.851 5  22204788.119    22204788.290    22204792.262
        80.000          61.000
 -11662823.968 5  -9087881.788 5  22002000.948    22002001.226    22002004.730
        70.000          73.000
  -3225555.460 4  -2513414.271 4  23728423.682    23728423.270    23728429.738
        32.000          27.000
 -18727147.214 9 -14592520.254 9  21048740.923    21048740.723    21048742.871
       276.000         217.000
  -5224009.620 4  -4070644.346 4  23651855.673    23651855.989    23651865.550
        32.000          36.000
  -3212423.095 4  -2503171.677 4  24346297.151    24346297.034    24346308.067
        25.000          16.000
 01  3 31  0 21 30.0000000  0 11G10G22G17G15G18G 6G26G28G23G 3G21
    -31830.542 4    -24776.427 4  24552318.935    24552318.955    24552327.497
        17.000          17.000
  -7332189.582 5  -5713382.456 5  22810543.304    22810542.954    22810549.468
        56.000          45.000
 -24998712.023 9 -19479449.959 9  20352313.293    20352313.032    20352314.046
       217.000         333.000
 -22428234.123 9 -17476483.278 9  20411260.296    20411260.028    20411261.785
       273.000         258.000
 -18109750.671 9 -14111436.692 7  21278571.783    21278571.813    21278573.734
       217.000         131.000
 -13720684.826 5 -10691410.929 5  22222018.136    22222017.930    22222021.633
        79.000          59.000
 -11680702.525 5  -9101813.093 5  21998598.458    21998598.755    21998602.318
        73.000          74.000
  -3265145.532 4  -2544263.631 4  23720889.972    23720889.861    23720896.045
        37.000          24.000
 -18773133.803 9 -14628353.880 9  21039989.836    21039989.611    21039991.708
       278.000         214.000
  -5321965.481 4  -4146973.345 4  23633216.250    23633216.255    23633224.732
        41.000          32.000
  -3310456.227 4  -2579560.711 4  24327641.741    24327641.441    24327653.279
        22.000          16.000
 01  3 31  0 22  0.0000000  0 11G10G22G17G15G18G 6G26G28G23G 3G21
     76090.586 4     59317.714 4  24572855.613    24572855.510    24572864.791
        22.000          21.000
  -7287672.576 5  -5678693.975 5  22819015.065    22819014.644    22819020.834
        53.000          43.000
 -25000383.874 9 -19480752.690 9  20351995.081    20351994.757    20351995.922
       216.000         332.000
 -22465922.382 9 -17505850.681 9  20404088.314    20404088.164    20404089.978
       272.000         261.000
 -18181669.952 9 -14167477.576 7  21264886.326    21264886.271    21264887.751
       222.000         129.000
 -13629827.822 5 -10620613.400 5  22239307.160    22239307.366    22239311.411
        83.000          58.000
 -11697940.586 5  -9115245.301 5  21995318.661    21995318.741    21995321.862
        71.000          69.000
  -3304191.354 4  -2574688.896 4  23713459.449    23713459.415    23713465.773
        31.000          26.000
 -18818681.021 9 -14663845.138 9  21031322.559    21031322.263    21031324.187
       284.000         215.000
  -5419720.422 4  -4223145.801 4  23614613.362    23614613.545    23614622.057
        33.000          32.000
  -3408356.649 4  -2655846.346 4  24309011.501    24309011.408    24309022.543
        29.000          16.000
 01  3 31  0 22 30.0000000  0 10G10G17G15G18G 6G26G28G23G 3G21
    184086.575 4    143470.282 4  24593405.959    24593405.805    24593415.432
        23.000          16.000
 -25001701.934 8 -19481779.732 9  20351744.119    20351743.908    20351745.172
       210.000         339.000
 -22503255.874 9 -17534941.650 9  20396983.799    20396983.669    20396985.601
       273.000         266.000
 -18253173.109 9 -14223194.203 7  21251279.615    21251279.706    21251280.907
       231.000         132.000
 -13538656.146 5 -10549570.676 5  22256656.909    22256656.958    22256660.898
        79.000          60.000
 -11714537.107 5  -9128177.610 5  21992160.364    21992160.585    21992163.560
        73.000          71.000
  -3342691.589 4  -2604689.013 4  23706133.017    23706132.953    23706139.687
        27.000          27.000
 -18863788.360 9 -14698993.631 9  21022738.981    21022738.697    21022740.431
       284.000         219.000
  -5517271.939 4  -4299159.707 4  23596049.567    23596050.067    23596058.188
        33.000          30.000
  -3506122.788 4  -2732027.363 4  24290406.565    24290406.206    24290417.985
        27.000          20.000
 01  3 31  0 23  0.0000000  0 11G10G22G17G15G18G 6G26G28G23G 3G21
    292155.382 4    227679.710 4  24613970.724    24613970.584    24613980.183
        22.000          16.000
     24333.422 5     18960.764 5  22836240.345    22836240.131    22836247.586
        52.000          49.000
 -25002665.968 8 -19482530.920 9  20351560.372    20351560.254    20351561.750
       212.000         338.000
 -22540234.060 9 -17563755.760 9  20389947.051    20389946.901    20389948.788
       281.000         267.000
