     2.10           OBSERVATION DATA    G                   RINEX VERSION / TYPE
Alloy 6.23          SMO                 20250420 010310 UTC PGM / RUN BY / DATE 
gfzrnx-2.1.12       FILE CONVERSION     20250424 060535 UTC COMMENT             
INITIAL_RINEX_VERSION: 3.02                                 COMMENT             
HKQT                                                        MARKER NAME         
23013M001                                                   MARKER NUMBER       
SMO                 Lands Department HKSAR                  OBSERVER / AGENCY   
6246R40050          TRIMBLE ALLOY       6.23                REC # / TYPE / VERS 
4624A16997          TRM59800.00     SCIT                    ANT # / TYPE        
        0.0083        0.0000        0.0000                  ANTENNA: DELTA H/E/N
 -2421567.8914  5384910.5629  2404264.3941                  APPROX POSITION XYZ 
                                                            COMMENT             
*********************************************************** COMMENT             
*                 WARNING - FORMAT CONVERSION             * COMMENT             
* ------------------------------------------------------- * COMMENT             
*  The data values: observation, loss of lock (LLI) and   * COMMENT             
*  signal strength (SSI) indicators are left as they are. * COMMENT             
*    The LLI meaning differs between versions 2 and 3     * COMMENT             
*    and the Interpretation of bit 1 and 2 has to be      * COMMENT             
*                   used with caution !!!                 * COMMENT             
*********************************************************** COMMENT             
                                                            COMMENT             
RINEX 3 -> 2 TYPE CONVERSION DETAILS:                       COMMENT             
-------------------------------------                       COMMENT             
   G C1C -> C1                                              COMMENT             
   G C2W -> P2                                              COMMENT             
   G C2X -> C2                                              COMMENT             
   G C5X -> C5                                              COMMENT             
   G L1C -> L1                                              COMMENT             
   G L2W -> L2                                              COMMENT             
   G L5X -> L5                                              COMMENT             
   G S1C -> S1                                              COMMENT             
   G S2W -> S2                                              COMMENT             
   G S5X -> S5                                              COMMENT             
-------------------------------------                       COMMENT             
                                                            COMMENT             
    10    C1    C2    C5    L1    L2    L5    P2    S1    S2# / TYPES OF OBSERV 
          S5                                                # / TYPES OF OBSERV 
    18                                                      LEAP SECONDS        
                                                            COMMENT             
EPOCH COUNT     m00  m10  m20  m30  m40  m50                COMMENT             
               ---- ---- ---- ---- ---- ----                COMMENT             
          A     120  120  120  120  120  120                COMMENT             
GFZRNX.NUM_EPOCHS: 720                                      COMMENT
    11                                                      # OF SATELLITES     
   G01   720   720   720   720   720   720   720   720   720PRN / # OF OBS      
         720                                                PRN / # OF OBS      
   G02   720               720   720         720   720   720PRN / # OF OBS      
                                                            PRN / # OF OBS      
   G04   451   451   451   447   447   451   448   451   448PRN / # OF OBS      
         451                                                PRN / # OF OBS      
   G07   720   720         720   720         720   720   720PRN / # OF OBS      
                                                            PRN / # OF OBS      
   G08   720   720   720   720   720   720   720   720   720PRN / # OF OBS      
         720                                                PRN / # OF OBS      
   G09   720   720   720   720   720   720   720   720   720PRN / # OF OBS      
         720                                                PRN / # OF OBS      
   G14   160   160   160   157   152   160   152   160   152PRN / # OF OBS      
         160                                                PRN / # OF OBS      
   G16   720               718   704         706   720   706PRN / # OF OBS      
                                                            PRN / # OF OBS      
   G26   409   403   409   317   313   409   399   409   399PRN / # OF OBS      
         409                                                PRN / # OF OBS      
   G27   720   720   720   720   720   720   720   720   720PRN / # OF OBS      
         720                                                PRN / # OF OBS      
   G30   720   720   720   720   720   720   720   720   720PRN / # OF OBS      
         720                                                PRN / # OF OBS      
     5.000                                                  INTERVAL            
  2025     4    20     0     0    0.0000000     GPS         TIME OF FIRST OBS   
  2025     4    20     0    59   55.0000000     GPS         TIME OF LAST OBS    
                                                            END OF HEADER      
 25 04 20 00 00 00.0000000  0 10G01G02G04G07G08G09G16G26G27G30       0.000000000
  23039433.76606  23039446.20306  23039448.72707 121073020.38606  94342679.63003
  90411734.62907  23039445.93003        36.100          21.300          42.200  
  21118294.28907                                 110977282.46807  86475928.62506
                  21118301.75806        47.000          40.200                  
  22251537.65607  22251548.62507  22251550.67207 116932586.80207  91116335.63905
  87319820.77007  22251548.49605        42.700          32.000          47.100  
  22518249.18007  22518257.85507                 118334126.91607  92208514.92207
                  22518257.69907        43.800          42.600                  
  20105227.88308  20105238.62508  20105235.61708 105653627.29908  82327603.84708
  78897273.84608  20105238.03508        48.700          52.800          53.700  
  22069801.79707  22069813.44507  22069812.94508 115977492.74407  90372148.66107
  86606632.25408  22069813.42207        43.800          44.200          49.100  
  23470392.80506                                 123337714.80806  96107435.70503
                  23470404.12903        38.400          22.500                  
  25052085.10905  25052106.63705  25052105.73806 131649541.09905 102584143.36104
  98309780.40406  25052106.35204        32.300          24.000          40.400  
  22009670.34407  22009682.07807  22009679.71508 115661574.20407  90125983.59407
  86370716.94008  22009681.59007        43.000          43.100          48.300  
  25324460.55505  25324474.64805  25324473.82406 133080884.94605 103699482.55904
  99378664.89206  25324474.17204        33.300          24.200          41.700  
 25 04 20 00 00 05.0000000  0 10G01G02G04G07G08G09G16G26G27G30       0.000000000
  23036417.38306  23036429.21506  23036431.73407 121057165.95006  94330325.50203
  90399895.28907  23036428.85903        36.100          20.100          42.400  
  21116571.14807                                 110968226.86307  86468872.30206
                  21116578.55906        47.200          39.800                  
  22254099.14807  22254110.07007  22254112.09407 116946046.59107  91126823.76805
  87329871.89907  22254109.80105        42.600          32.300          47.500  
  22515456.87507  22515465.10507                 118319451.41707  92197079.47506
                  22515464.99606        43.700          41.900                  
  20106295.78908  20106306.71908  20106303.66408 105659239.60608  82331977.07008
  78901464.84808  20106306.01608        48.700          52.900          53.200  
  22071087.37507  22071099.13707  22071098.50808 115984248.81707  90377413.12007
  86611677.36508  22071099.17607        43.800          44.000          49.200  
  23472110.14806                                 123346738.25806  96114466.89003
                  23472121.31603        38.400          23.900                  
  25053913.00805  25053934.05905  25053933.74206 131659146.87705 102591628.27404
  98316953.48406  25053934.31304        33.800          24.600          40.700  
  22012493.25007  22012504.87907  22012502.72708 115676408.94207  90137543.11707
  86381794.81608  22012504.61707        43.000          43.600          48.300  
  25321228.97705  25321243.05505  25321243.04306 133063906.66805 103686252.70904
  99365986.28606  25321243.23404        33.600          24.700          41.600  
 25 04 20 00 00 10.0000000  0 10G01G02G04G07G08G09G16G26G27G30       0.000000000
  23033400.72706  23033412.56606  23033415.17207 121041313.32606  94317972.81603
  90388057.32007  23033412.17203        36.300          20.600          43.000  
  21114850.48407                                 110959184.24607  86461826.10206
                  21114857.81306        47.000          39.600                  
  22256661.48407  22256672.53507  22256674.48407 116959511.85807  91137316.16605
  87339927.08607  22256672.12505        42.700          32.100          47.300  
  22512664.87507  22512673.36707                 118304780.16907  92185647.34706
                  22512673.19106        43.800          41.600                  
  20107365.80508  20107376.72308  20107373.78908 105664862.89908  82336358.84908
  78905664.05508  20107376.12908        48.500          52.800          53.300  
  22072375.18007  22072386.93007  22072386.23408 115991016.13607  90382686.34607
  86616730.86608  22072386.94507        43.900          43.900          49.300  
  23473827.36706                                 123355761.69506  96121498.10503
                  23473838.50803        38.300          22.800                  
  25055741.20305  25055762.38305  25055762.41007 131668753.72905 102599114.10904
  98324127.36107  25055762.38304        34.200          25.600          42.000  
  22015316.95307  22015328.86707  22015326.53108 115691247.96807  90149105.97507
  86392875.88208  22015328.45707        42.600          42.800          48.300  
  25317997.67205  25318012.10205  25318011.81306 133046927.20905 103673021.96504
  99353306.83406  25318012.15204        31.700          24.400          41.800  
 25 04 20 00 00 15.0000000  0 10G01G02G04G07G08G09G16G26G27G30       0.000000000
  23030384.40606  23030396.24206  23030398.75807 121025462.51206  94305621.54403
  90376220.67807  23030395.92203        36.500          21.800          43.100  
  21113132.09407                                 110950154.58107  86454790.01706
                  21113139.56306        47.000          40.400                  
  22259224.76607  22259235.75007  22259237.91007 116972982.48107  91147812.72905
  87349986.29707  22259235.57805        42.600          32.200          46.800  
  22509873.81307  22509882.25807                 118290113.07707  92174218.45206
                  22509882.18806        43.800          41.700                  
  20108437.91408  20108448.90208  20108445.87108 105670497.14008  82340749.16708
  78909871.43308  20108448.28508        48.700          52.900          53.500  
  22073665.25007  22073676.63707  22073676.10508 115997794.60607  90387968.25707
  86621792.69708  22073676.78507        43.900          43.900          48.800  
  23475544.69506                                 123364785.01606  96128529.26903
                  23475555.65203        39.200          22.000                  
  25057569.18005  25057590.38305  25057590.61306 131678361.52705 102606600.66104
  98331301.99706  25057590.65604        34.500          26.000          41.200  
  22018141.64107  22018153.39807  22018151.07008 115706091.18007  90160672.10307
  86403960.07708  22018152.98007        43.000          43.200          48.300  
  25314766.60205  25314781.25805  25314780.60907 133029946.62005 103659790.33503
  99340626.52507  25314780.90603        32.100          22.600          42.400  
 25 04 20 00 00 20.0000000  0 10G01G02G04G07G08G09G16G26G27G30       0.000000006
  23027368.27306  23027380.17606  23027382.77307 121009612.80906  94293271.10603
  90364384.87107  23027379.83203        36.400          21.700          43.000  
  21111416.20307                                 110941137.24807  86447763.52306
                  21111423.62106        47.000          39.500                  
  22261789.01607  22261800.06607  22261802.13707 116986457.82507  91158312.98205
  87360049.03007  22261799.90205        43.200          31.700          46.900  
  22507083.28907  22507091.74607                 118275449.54707  92162792.32607
                  22507091.80107        43.800          42.100                  
  20109512.20308  20109522.99208  20109520.06608 105676141.66108  82345147.48108
  78914086.49208  20109522.41808        48.800          52.900          53.200  
  22074957.28107  22074968.90207  22074967.92608 116004583.58307  90393258.35707
  86626862.37508  22074968.60907        44.600          44.000          49.800  
  23477262.59406                                 123373807.62306  96135559.84703
                  23477272.52003        39.200          23.000                  
  25059397.89805  25059418.65605  25059419.12507 131687969.72905 102614087.55103
  98338476.86807  25059418.96103        33.700          23.900          42.100  
  22020966.93807  22020978.65207  22020976.31608 115720937.94607  90172240.98007
  86415046.93008  22020978.31607        43.000          43.100          48.300  
  25311535.18004  25311549.56605  25311548.80106 133012964.19304 103646557.30803
  99327944.89906  25311549.17203        29.900          22.800          39.900  
 25 04 20 00 00 25.0000000  0 10G01G02G04G07G08G09G16G26G27G30       0.000000029
  23024351.15606  23024363.05506  23024365.73407 120993758.58006  94280917.16003
  90352545.66307  23024362.82003        36.700          22.600          43.100  
  21109701.52307                                 110932126.52807  86440742.18806
                  21109708.96506        47.200          39.900                  
  22264352.97707  22264364.22707  22264366.32407 116999932.16207  91168812.43105
  87370111.01507  22264364.10905        43.500          32.000          47.200  
  22504292.85207  22504301.13307                 118260783.90107  92151364.55007
                  22504300.98807        43.800          42.000                  
  20110587.26608  20110598.18408  20110595.05108 105681790.75108  82349549.35608
  78918304.95608  20110597.43808        48.800          52.800          53.600  
  22076249.83607  22076261.46107  22076260.75408 116011377.35607  90398552.20207
  86631935.63908  22076261.50407        44.100          44.000          48.800  
  23478978.13306                                 123382823.81106  96142585.43103
                  23478988.34003        40.000          22.900                  
  25061225.43005  25061246.50005  25061246.75807 131697572.56105 102621570.23804
  98345647.77107  25061246.19504        33.400          25.100          42.600  
  22023791.59407  22023803.31607  22023801.18808 115735782.52307  90183808.18107
  86426132.13508  22023803.16007        42.800          42.700          48.000  
  25308301.89805  25308316.26605  25308315.68406 132995974.31605 103633318.46103
  99315257.59106  25308316.16003        31.900          23.000          40.800  
 25 04 20 00 00 30.0000000  0 10G01G02G04G07G08G09G16G26G27G30       0.000000025
  23021335.25006  23021346.98806  23021349.53507 120977908.13606  94268566.20703
  90340709.30907  23021346.56603        36.700          22.300          43.300  
  21107989.76607                                 110923130.77207  86433732.51606
                  21107997.05906        47.100          40.000                  
  22266918.57007  22266929.50807  22266931.80507 117013413.79107  91179317.59005
  87380178.43307  22266929.57805        42.500          31.500          47.300  
  22501503.06307  22501511.62107                 118246124.43007  92139941.59507
                  22501511.34407        43.900          42.300                  
  20111664.77308  20111675.55908  20111672.55508 105687452.70008  82353961.26108
  78922533.02008  20111674.87908        48.700          52.900          53.700  
  22077545.21107  22077556.69907  22077556.10908 116018184.20307  90403856.23307
  86637018.66808  22077556.82807        43.300          43.700          48.700  
  23480694.15606                                 123391841.87306  96149612.48503
                  23480704.47303        39.500          23.900                  
  25063052.94505  25063074.22305  25063074.45306 131707178.46605 102629055.19204
  98352820.93306  25063074.09404        33.400          25.600          41.400  
  22026617.64807  22026629.51207  22026627.28508 115750633.21407  90195380.12607
  86437221.92208  22026629.16007        42.900          42.800          48.200  
  25305069.46905  25305083.23805  25305082.75406 132978985.24005 103620080.14403
  99302570.96906  25305083.29303        31.000          22.200          39.900  
 25 04 20 00 00 35.0000000  0 10G01G02G04G07G08G09G16G26G27G30       0.000000023
  23018319.26606  23018331.05906  23018333.75007 120962060.19706  94256217.18003
  90328874.82607  23018330.83203        36.400          22.600          43.400  
  21106280.47707                                 110914148.72107  86426733.52006
                  21106287.87106        47.000          40.100                  
  22269485.25007  22269496.32807  22269498.41007 117026901.42807  91189827.41705
  87390250.35507  22269496.19105        42.400          32.100          47.300  
  22498714.58607  22498722.94107                 118231469.91307  92128522.49707
                  22498722.64107        43.800          42.400                  
  20112744.28108  20112755.35208  20112752.14508 105693126.23108  82358382.19308
  78926769.73908  20112754.55108        48.800          52.700          53.500  
  22078842.83607  22078854.23807  22078853.69108 116025002.86107  90409169.45907
  86642110.51008  22078854.37107        43.800          43.700          48.900  
  23482410.30506                                 123400860.54606  96156639.99303
                  23482420.84803        39.600          22.600                  
  25064880.89105  25064902.73805  25064902.86706 131716785.92205 102636541.56003
  98359995.27706  25064902.44903        31.800          23.200          41.800  
  22029444.65607  22029456.39507  22029454.17608 115765488.76707  90206955.86407
  86448315.32908  22029456.09407        42.500          42.700          48.100  
  25301836.24205  25301850.91406  25301849.56606 132961995.64905 103606841.60304
  99289883.92606  25301850.37504        33.400          28.200          41.400  
 25 04 20 00 00 40.0000000  0 10G01G02G04G07G08G09G16G26G27G30       0.000000019
  23015304.01606  23015315.86706  23015318.42207 120946214.70506  94243870.05303
  90317042.16207  23015315.47703        37.000          22.800          43.700  
  21104573.94507                                 110905180.27807  86419745.12406
                  21104581.14506        46.900          39.200                  
  22272052.89107  22272064.12507  22272066.16407 117040394.96507  91200341.83605
  87400326.66907  22272063.85905        42.600          31.900          47.200  
  22495926.82807  22495935.13707                 118216820.23007  92117107.16207
                  22495934.94107        44.100          42.700                  
  20113825.93008  20113836.85908  20113833.99209 105698811.24008  82362812.07208
  78931015.04409  20113836.33608        48.700          52.800          54.100  
  22080142.45307  22080154.09807  22080153.48808 116031833.23207  90414491.81507
  86647211.09408  22080154.16807        43.900          43.900          49.300  
  23484125.99206                                 123409879.80906  96163667.93603
                  23484137.20303        40.400          22.500                  
  25066709.50805  25066731.55505  25066731.29706 131726395.14605 102644029.14803
  98367170.92106  25066731.00403        32.800          22.800          40.600  
  22032272.49207  22032284.38707  22032282.11308 115780349.05007  90218535.28707
  86459412.26808  22032283.85507        42.800          43.000          48.500  
  25298603.22704  25298617.55905  25298616.42206 132945005.59804 103593602.47403
  99277196.62206  25298617.26203        27.500          22.200          40.600  
 25 04 20 00 00 45.0000000  0 10G01G02G04G07G08G09G16G26G27G30       0.000000017
  23012289.09406  23012300.85506  23012303.40607 120930371.57006  94231524.75603
  90305211.26607  23012300.66003        37.200          22.200          43.800  
  21102869.79707                                 110896225.36107  86412767.27106
                  21102877.12106        47.100          39.900                  
  22274621.78107  22274633.03907  22274634.89107 117053894.29107  91210860.76905
  87410407.30407  22274632.70305        43.000          32.400          46.800  
  22493139.88307  22493148.34407                 118202175.27507  92105695.51806
                  22493148.07006        44.100          41.900                  
  20114910.03108  20114920.82008  20114917.90608 105704507.64408  82367250.81208
  78935268.84408  20114920.29308        48.800          52.800          53.800  
  22081444.60907  22081456.25807  22081455.39508 116038675.17707  90419823.18507
  86652320.32208  22081456.27307        43.600          43.600          48.300  
  23485842.64806                                 123418899.48306  96170696.24603
                  23485853.61703        39.000          23.000                  
  25068538.69505  25068560.35905  25068560.40207 131736005.79005 102651518.00803
  98374347.64807  25068559.97703        34.100          22.800          42.300  
  22035100.92207  22035112.84007  22035110.72308 115795213.94907  90230118.30607
  86470512.67308  22035112.65207        42.600          42.500          48.200  
  25295370.36705  25295383.86305  25295383.48006 132928014.88605 103580363.04204
  99264508.67906  25295384.06604        31.900          25.300          40.200  
 25 04 20 00 00 50.0000000  0 10G01G02G04G07G08G09G16G26G27G30       0.000000015
  23009274.82006  23009286.60507  23009289.04707 120914530.81206  94219181.31603
  90293382.13407  23009286.19103        37.300          22.600          44.500  
  21101168.52307                                 110887284.02007  86405800.00006
                  21101175.62906        47.000          40.000                  
  22277191.89107  22277202.80507  22277204.99607 117067399.40207  91221384.21605
  87420492.28507  22277202.82005        43.100          32.800          47.200  
  22490353.97707  22490362.34807                 118187535.10807  92094287.60207
                  22490362.18007        44.100          42.200                  
  20115996.14808  20116007.22308  20116004.06608 105710215.41908  82371698.42608
  78939531.13408  20116006.48008        48.900          53.000          53.400  
  22082748.76607  22082760.28107  22082759.75408 116045528.74007  90425163.61207
  86657438.23208  22082760.47707        43.000          43.700          48.800  
  23487559.00006                                 123427919.65006  96177724.89203
                  23487570.16403        39.200          22.200                  
  25070368.29705  25070389.66405  25070389.52306 131745618.09805 102659008.05104
  98381525.56506  25070389.19104        35.200          25.600          41.200  
  22037930.69507  22037942.40207  22037940.34008 115810083.49307  90241704.94807
  86481616.53008  22037942.12507        42.900          43.300          48.300  
  25292136.37505  25292150.62505  25292150.05906 132911023.59905 103567123.06203
  99251820.42606  25292150.73003        32.500          21.700          40.600  
 25 04 20 00 00 55.0000000  0 10G01G02G04G07G08G09G16G26G27G30       0.000000013
  23006260.82006  23006272.46506  23006275.16007 120898692.35506  94206839.70903
  90281554.73207  23006272.25803        37.200          22.200          43.800  
  21099469.51607                                 110878356.14907  86398843.21306
                  21099476.75006        47.100          40.000                  
  22279762.71907  22279773.91807  22279776.02307 117080910.20207  91231912.08105
  87430581.48907  22279773.78105        42.900          32.700          47.400  
  22487568.93807  22487577.33607                 118172899.63507  92082883.32907
                  22487577.09007        44.100          42.700                  
  20117084.47708  20117095.59408  20117092.40208 105715934.46508  82376154.81708
  78943801.85308  20117094.78508        48.800          52.800          53.500  
  22084055.10207  22084066.62907  22084066.17208 116052393.77307  90430512.97307
  86662564.70508  22084066.82007        43.500          43.700          48.500  
  23489274.84406                                 123436940.11406  96184753.81303
                  23489286.65603        38.200          22.800                  
  25072197.28905  25072219.09805  25072219.39106 131755231.82005 102666499.11604
  98388704.60106  25072218.54704        34.200          24.800          41.500  
  22040760.88307  22040773.05107  22040770.86308 115824957.55607  90253295.09907
  86492723.75908  22040772.69107        42.800          43.000          48.800  
  25288902.83605  25288917.73406  25288916.35206 132894031.64305 103553882.60004
  99239131.60306  25288917.29304        32.900          26.300          39.400  
 25 04 20 00 01 00.0000000  0 10G01G02G04G07G08G09G16G26G27G30       0.000000010
  23003247.21106  23003259.01206  23003261.68807 120882856.44606  94194500.06003
  90269729.22807  23003258.84403        37.300          22.900          43.400  
  21097773.05507                                 110869442.03307  86391897.14906
                  21097780.44106        46.900          39.400                  
  22282334.96107  22282346.00407  22282347.98807 117094426.90607  91242444.55805
  87440675.11807  22282345.96105        43.000          31.500          47.100  
  22484785.03107  22484793.25007                 118158269.09007  92071482.92007
                  22484793.00407        44.100          42.200                  
  20118175.01608  20118185.99608  20118182.91808 105721665.02408  82380620.18308
  78948081.15008  20118185.31608        49.100          52.900          53.500  
  22085363.58607  22085375.21107  22085374.68808 116059270.52207  90435871.48107
  86667699.92908  22085375.30507        43.600          43.800          48.500  
  23490991.39806                                 123445961.25706  96191783.22303
                  23491003.33603        38.000          22.600                  
  25074027.47705  25074048.95305  25074049.29306                                
  98395884.88606  25074048.11303        31.900          22.200          41.100  
  22043592.53107  22043604.44107  22043602.19108 115839836.36307  90264888.96107
  86503834.53708  22043604.03507        42.800          42.800          48.400  
  25285670.03905  25285684.19506  25285682.83206 132877039.21305 103540641.77204
  99226442.44706  25285683.89504        32.400          26.300          39.700  
 25 04 20 00 01 05.0000000  0 10G01G02G04G07G08G09G16G26G27G30      -0.000000013
  23000235.65606  23000247.13706  23000249.79707 120867029.37506  94182167.24403
  90257910.31807  23000247.02703        37.300          22.300          44.000  
  21096080.68807                                 110860547.90807  86384966.66606
                  21096087.86306        46.500          39.900                  
  22284909.28907  22284920.59007  22284922.65607 117107955.75207  91252986.50005
  87450777.79207  22284920.53905        42.500          31.300          46.800  
  22482003.03107  22482011.39507                 118143649.75507  92060091.23107
                  22482011.07407        43.800          42.400                  
  20119268.84408  20119279.88308  20119276.77008 105727413.33808  82385099.37708
  78952373.72208  20119279.12908        48.500          52.500          53.700  
  22086675.76607  22086687.52307  22086686.65208 116066165.22107  90441243.95607
  86672848.57008  22086687.20307        42.700          43.400          48.800  
  23492709.59406                                 123454989.25206  96198818.01103
                  23492721.43403        38.100          23.200                  
  25075858.17205  25075879.31605  25075880.44506 131774470.60905 102681490.31903
  98403071.06706  25075879.23003        32.300          23.800          41.300  
  22046426.08607  22046437.92607  22046435.58608 115854726.16307  90276491.38507
  86514953.51508  22046437.55907        42.500          42.600          48.900  
  25282437.16405  25282451.47706  25282450.10906 132860052.62605 103527405.46004
  99213757.64006  25282451.45304        32.600          28.700          38.300  
 25 04 20 00 01 10.0000000  0 10G01G02G04G07G08G09G16G26G27G30      -0.000000013
  22997223.96106  22997235.48806  22997237.93407 120851202.23206  94169834.41404
  90246091.36107  22997235.15204        38.000          25.000          44.300  
  21094390.09407                                 110851664.88507  86378044.83806
                  21094397.44906        46.800          39.900                  
  22287484.68807  22287495.43007  22287497.61307 117121487.78907  91263530.93005
  87460882.85507  22287495.62905        42.900          31.500          47.000  
  22479221.37507  22479229.60507                 118129032.67807  92048701.31507
                  22479229.53107        43.900          42.000                  
  20120364.53108  20120375.41008  20120372.28908 105733170.46708  82389585.45208
  78956672.87008  20120374.64508        48.700          52.900          53.900  
  22087989.52307  22088001.12507  22088000.53108 116073068.97107  90446623.48907
  86678003.94008  22088000.90607        42.800          43.700          48.400  
  23494427.31306                                 123464015.14606  96205851.12703
                  23494438.93803        38.800          23.000                  
  25077690.12505  25077711.03505  25077711.39506 131784092.91705 102688988.19604
  98410256.54306  25077710.26604        31.900          25.000          41.700  
  22049259.59407  22049271.76207  22049269.44508 115869618.02907  90288095.40907
  86526074.04608  22049271.33207        42.600          42.800          48.900  
  25279204.02305  25279218.48406  25279217.25006 132843062.94405 103514166.78604
  99201070.57706  25279218.44104        31.600          24.700          39.200  
 25 04 20 00 01 15.0000000  0 10G01G02G04G07G08G09G16G26G27G30      -0.000000011
  22994212.37506  22994224.03906  22994226.44907 120835376.80806  94157502.93104
  90234273.69207  22994223.60504        37.500          24.600          44.500  
  21092702.05507                                 110842794.70607  86371133.00806
                  21092709.60206        46.800          39.600                  
  22290060.62507  22290071.64107  22290073.58607 117135024.83107  91274079.22905
  87470991.65307  22290071.58205        42.000          31.900          47.100  
  22476440.62507  22476448.78507                 118114419.73607  92037314.60607
                  22476448.84007        44.100          42.300                  
  20121461.93008  20121472.92208  20121469.90608 105738938.18408  82394079.76808
  78960979.91908  20121472.23008        49.000          52.900          53.500  
  22089305.18007  22089317.13707  22089316.23408 116079983.48107  90452011.41507
  86683167.35608  22089316.79307        43.300          43.800          48.700  
  23496145.14106                                 123473040.79706  96212884.11503
                  23496156.46103        39.400          22.900                  
  25079520.81305  25079542.25805  25079542.84407 131793716.17605 102696486.84003
  98417442.64707  25079541.54703        33.600          22.500          43.300  
  22052094.21107  22052106.43807  22052103.96908 115884513.72007  90299702.42607
  86537197.42908  22052105.95707        42.400          43.300          48.100  
  25275970.89105  25275985.63306  25275983.88306 132826071.96805 103500927.08704
  99188382.50606  25275985.20304        32.900          26.200          39.000  
 25 04 20 00 01 20.0000000  0 10G01G02G04G07G08G09G16G26G27G30      -0.000000010
  22991201.02306  22991212.84007  22991215.14807 120819553.11606  94145172.78703
  90222457.30107  22991212.39803        37.900          23.400          44.300  
  21091016.87507                                 110833937.40107  86364231.21206
                  21091024.05906        47.200          39.600                  
  22292637.56307  22292648.32007  22292650.62507 117148566.81707  91284631.41505
  87481104.16607  22292648.46905        42.600          32.400          47.100  
  22473660.87507  22473668.66007                 118099810.89707  92025931.10207
                  22473668.87907        44.200          42.400                  
  20122561.53108  20122572.50808  20122569.55108 105744716.48508  82398582.33908
  78965294.87808  20122571.81608        48.800          52.800          53.400  
  22090623.14107  22090635.10207  22090634.13708 116086908.78607  90457407.73807
  86688338.85208  22090634.76207        44.200          43.700          48.400  
  23497862.51606                                 123482066.17906  96219916.84203
                  23497874.00803        39.600          22.800                  
  25081351.91405  25081373.89805  25081374.38307 131803340.25405 102703985.98803
  98424629.37907  25081373.09003        33.800          22.300          43.000  
  22054929.75007  22054941.43007  22054939.23008 115899413.24107  90311312.41707
  86548323.67608  22054941.27707        42.600          42.700          48.300  
  25272737.46105  25272751.81606  25272750.28506 132809079.77805 103487686.42104
  99175693.53206  25272751.71504        32.100          24.500          38.900  
 25 04 20 00 01 25.0000000  0 10G01G02G04G07G08G09G16G26G27G30      -0.000000008
  22988190.19506  22988202.26207  22988204.47307 120803731.21906  94132844.08103
  90210642.27307  22988201.60903        37.700          23.800          44.000  
  21089333.83607                                 110825093.06807  86357339.53006
                  21089340.94106        47.200          39.600                  
  22295215.32007  22295226.48407  22295228.62507 117162113.79707  91295187.49005
  87491220.40507  22295226.39505        42.600          31.500          46.900  
  22470881.65607  22470889.75807                 118085206.27007  92014550.87307
                  22470889.63307        44.100          42.300                  
  20123663.35908  20123674.12908  20123671.08208 105750505.42008  82403093.18808
  78969617.78208  20123673.44108        48.700          52.800          53.500  
  22091943.17207  22091955.04307  22091954.05508 116093844.94207  90462812.52807
  86693518.42808  22091954.71907        42.900          43.800          48.200  
  23499580.20306                                 123491091.33906  96226949.41103
                  23499591.47703        40.100          22.600                  
  25083183.75805  25083205.34005  25083205.91407 131812965.15005 102711485.85303
  98431816.75707  25083204.75003        34.000          22.500          43.000  
  22057765.58607  22057777.57407  22057775.33608 115914316.60807  90322925.41807
  86559452.79508  22057777.26607        42.700          42.800          48.100  
  25269503.50005  25269517.96506  25269516.81306 132792086.33005 103474444.75004
  99163003.62206  25269517.98404        33.700          26.700          39.500  
 25 04 20 00 01 30.0000000  0 10G01G02G04G07G08G09G16G26G27G30      -0.000000008
  22985179.72706  22985191.52307  22985193.99607 120787911.08206  94120516.68003
  90198828.52907  22985191.20703        38.300          23.400          44.700  
  21087653.13307                                 110816261.57507  86350457.84906
                  21087660.38706        47.400          40.400                  
  22297794.59407  22297805.43807  22297807.40607 117175665.69607  91305747.39905
  87501340.28807  22297805.21105        42.200          31.600          47.300  
  22468103.09407  22468111.37107                 118070605.72507  92003173.83807
                  22468111.21907        44.600          42.000                  
  20124766.75008  20124777.76208  20124774.73408 105756304.87208  82407612.23608
  78973948.53408  20124777.02308        49.100          53.100          53.000  
  22093264.78907  22093276.73807  22093275.96507 116100791.80707  90468225.65707
  86698706.00407  22093276.73407        43.600          44.100          47.900  
  23501297.12506                                 123500116.20606  96233981.78203
                  23501308.94503        39.400          22.500                  
  25085015.40605  25085037.17605  25085037.55907 131822590.84405 102718986.34203
  98439004.71507  25085036.62103        34.200          22.900          42.400  
  22060602.39107  22060614.48407  22060612.18808 115929223.74707  90334541.35207
  86570584.72708  22060614.13307        42.700          42.600          48.500  
  25266269.64805  25266284.34406  25266283.07406 132775091.60105 103461202.12804
  99150312.74106  25266283.96504        32.800          26.200          40.700  
 25 04 20 00 01 35.0000000  0 10G01G02G04G07G08G09G16G26G27G30      -0.000000006
  22982169.48406  22982181.34007  22982183.94907 120772092.73106  94108190.71103
  90187016.14807  22982181.03903        37.700          22.500          44.200  
  21085975.00007                                 110807443.08707  86343586.30806
                  21085982.32006        47.200          40.600                  
  22300374.05507  22300385.18007  22300387.30107 117189222.57007  91316311.17505
  87511463.92107  22300385.01605        42.500          32.000          47.100  
  22465325.57007  22465333.70307                 118056009.38407  91991800.07507
                  22465333.73007        44.200          43.000                  
  20125872.24208  20125883.34808  20125880.40608 105762114.96408  82412139.57808
  78978287.23408  20125882.68408        48.800          52.900          53.500  
  22094589.18807  22094600.84007  22094600.01608 116107749.51607  90473647.24207
  86703901.69408  22094600.76207        43.700          43.700          48.200  
  23503015.44506                                 123509140.86906  96241013.94303
                  23503026.27303        38.900          21.800                  
  25086847.50805  25086868.83205  25086869.49607 131832217.50605 102726487.61204
  98446193.37607  25086868.62904        34.200          25.800          42.400  
  22063440.02307  22063451.63307  22063449.67608 115944134.73307  90346160.28407
  86581719.52508  22063451.56307        42.800          42.900          48.500  
  25263035.50005  25263050.20306  25263048.82006 132758095.69805 103447958.56004
  99137621.01806  25263049.76204        33.500          26.500          39.500  
 25 04 20 00 01 40.0000000  0 10G01G02G04G07G08G09G16G26G27G30      -0.000000006
  22979159.99206  22979171.77707  22979174.05907 120756276.28706  94095866.23104
  90175205.18507  22979171.31604        38.600          24.200          44.700  
  21084299.46107                                 110798637.61507  86336724.90506
                  21084306.66006        47.600          40.400                  
  22302955.07007  22302965.85907  22302968.09007 117202784.45207  91326878.86305
  87521591.26507  22302965.79705        42.000          31.200          47.500  
  22462548.62507  22462556.95307                 118041417.27907  91980429.60407
                  22462556.84407        44.300          42.500                  
  20126979.86708  20126990.92608  20126987.99208 105767935.68108  82416675.20008
  78982633.86108  20126990.32008        48.900          53.000          53.400  
  22095915.18007  22095926.79307  22095926.05508 116114718.05107  90479077.25307
  86709105.45108  22095926.84807        43.600          43.900          48.000  
  23504731.39806                                 123518165.36006  96248045.96804
                  23504743.73004        38.400          24.600                  
  25088679.58605  25088701.50006  25088701.78507 131841845.06705 102733989.60804
  98453382.73207  25088700.86304        34.000          25.800          42.100  
  22066278.07807  22066289.89507  22066287.76208 115959049.60007  90357782.24207
  86592857.22508  22066289.82007        42.700          43.000          48.300  
  25259801.56305  25259815.71506  25259814.31606 132741098.67605 103434714.12704
  99124928.39906  25259815.34804        33.900          26.900          41.100  
 25 04 20 00 01 45.0000000  0 10G01G02G04G07G08G09G16G26G27G30      -0.000000004
  22976150.53106  22976162.22707  22976164.71507 120740461.83106  94083543.27003
  90163395.71907  22976161.92603        38.500          23.900          43.900  
  21082626.29707                                 110789845.28807  86329873.74006
                  21082633.60206        47.300          40.100                  
  22305536.61707  22305547.54707  22305549.66407 117216351.39607  91337450.47105
  87531722.40407  22305547.47305        42.900          31.100          47.600  
  22459772.89107  22459781.10207                 118026829.54307  91969062.54007
                  22459780.92207        44.300          42.300                  
  20128089.71108  20128100.56308  20128097.61309 105773767.10108  82421219.15408
  78986988.49409  20128100.00808        48.800          53.000          54.100  
  22097243.28907  22097254.96907  22097254.17208 116121697.49507  90484515.77307
  86714317.36708  22097254.96907        42.800          43.600          48.200  
  23506448.90606                                 123527189.80206  96255078.01604
                  23506460.97704        37.500          24.300                  
  25090511.99205  25090533.56305  25090534.15207 131851473.67005 102741492.35603
  98460572.84507  25090533.23803        34.200          22.300          43.000  
  22069117.10207  22069129.07007  22069126.78508 115973968.40207  90369407.25707
  86603997.86808  22069128.73807        42.600          42.300          48.000  
  25256566.37505  25256581.31606  25256579.72706 132724100.56905 103421468.86904
  99112235.02906  25256580.63704        34.100          27.900          41.200  
 25 04 20 00 01 50.0000000  0 10G01G02G04G07G08G09G16G26G27G30      -0.000000004
  22973141.53106  22973152.98807  22973155.70307 120724649.30006  94071221.83704
  90151587.66307  22973152.98404        38.400          24.100          44.000  
  21080955.68807                                 110781066.06007  86323032.78906
                  21080962.95306        47.300          40.400                  
  22308119.32807  22308130.21107  22308132.43807 117229923.32407  91348025.98505
  87541857.25807  22308130.00805        42.900          30.800          47.600  
  22456997.65607  22457006.07407                 118012246.12707  91957698.85007
                  22457005.80507        44.100          42.600                  
  20129201.55508  20129212.43808  20129209.38708 105779609.16208  82425771.40808
  78991351.06008  20129211.75408        48.800          52.800          53.800  
  22098573.38307  22098585.27707  22098584.47308 116128687.77907  90489962.74107
  86719537.37008  22098585.25407        43.000          43.700          48.200  
  23508166.18806                                 123536214.13106  96262109.87503
                  23508178.41003        38.900          23.200                  
  25092344.64805  25092366.18005  25092366.52307 131861103.17105 102748995.77403
  98467763.67107  25092365.83203        33.300          22.900          42.100  
  22071956.85907  22071968.48407  22071966.48008 115988891.08007  90381035.30507
  86615141.40708  22071968.46507        42.800          42.900          48.800  
  25253331.78905  25253345.89106  25253344.92606 132707101.35305 103408222.71204
  99099540.79906  25253345.85904        33.800          27.100          41.200  
 25 04 20 00 01 55.0000000  0 10G01G02G04G07G08G09G16G26G27G30      -0.000000004
  22970132.77306  22970144.63707  22970146.98007 120708838.70006  94058901.89904
  90139781.05307  22970144.31304        39.100          24.900          44.700  
  21079287.71107                                 110772299.87707  86316201.99706
                  21079294.85506        47.300          40.300                  
  22310702.90607  22310714.09007  22310716.07807 117243500.18907  91358605.35105
  87551995.80907  22310713.75405        42.200          32.100          47.200  
  22454223.27307  22454231.52307                 117997667.01007  91946338.50207
                  22454231.46107        44.100          42.300                  
  20130315.12508  20130326.07808  20130323.10508 105785461.80408  82430331.91108
  78995721.53508  20130325.44908        48.800          52.900          53.400  
  22099905.50807  22099917.48007  22099916.78908 116135688.83507  90495418.09407
  86724765.41508  22099917.47307        42.900          43.600          48.600  
  23509884.23406                                 123545238.23506  96269141.60603
                  23509895.60503        39.000          23.500                  
  25094177.46105  25094198.90606  25094199.21107 131870733.64405 102756499.98204
  98474955.19007  25094198.53504        33.500          24.000          43.000  
  22074797.23407  22074808.95707  22074806.93008 116003817.55507  90392666.30907
  86626287.78308  22074808.85207        42.500          42.600          48.000  
  25250096.73405  25250111.33606  25250109.94506 132690101.04005 103394975.70904
  99086845.76206  25250110.78504        34.400          26.200          41.100  
 25 04 20 00 02 00.0000000  0 10G01G02G04G07G08G09G16G26G27G30      -0.000000004
  22967124.25006  22967136.25006  22967138.76607 120693030.10306  94046583.52703
  90127975.94607  22967136.12903        38.900          23.200          44.600  
  21077621.86707                                 110763546.81507  86309381.43906
                  21077629.25406        47.200          40.300                  
  22313287.29707  22313298.67607  22313300.76207 117257082.09007  91369188.62905
  87562138.10807  22313298.38305        42.600          31.400          47.300  
  22451449.75807  22451458.10207                 117983092.28207  91934981.58307
                  22451458.03107        44.100          42.500                  
  20131430.96908  20131441.82808  20131438.84008 105791325.13008  82434900.72908
  79000099.98108  20131441.28508        48.800          52.800          53.100  
  22101240.03107  22101251.82007  22101251.08208 116142700.76507  90500881.92807
  86730001.58808  22101251.85207        43.200          43.300          48.600  
  23511601.64106                                 123554262.26506  96276173.32703
                  23511612.92203        38.600          22.500                  
  25096009.96105  25096031.55506  25096032.05907 131880365.13905 102764005.02103
  98482147.49407  25096031.36703        32.700          23.200          42.600  
  22077638.46907  22077650.37507  22077648.18808 116018747.94407  90404300.35807
  86637437.09508  22077650.03507        42.600          42.400          48.000  
  25246861.85205  25246876.33206  25246874.60207 132673099.66105 103381727.91204
  99074149.94807  25246875.46904        35.300          28.600          42.200  
 25 04 20 00 02 05.0000000  0 10G01G02G04G07G08G09G16G26G27G30      -0.000000002
  22964116.51606  22964127.94106  22964130.89807 120677223.56806  94034266.74904
  90116172.39007  22964128.16404        38.900          24.500          44.600  
  21075958.63307                                 110754806.97507  86302571.17106
                  21075966.11706        47.200          40.700                  
  22315872.76607  22315884.06307  22315886.30507 117270669.03507  91379775.82105
  87572284.17707  22315883.92205        42.000          31.700          47.300  
  22448677.14107  22448685.40607                 117968521.95507  91923628.07907
                  22448685.30507        44.300          42.600                  
  20132548.65608  20132559.68008  20132556.64508 105797199.15608  82439477.87608
  79004486.42908  20132559.04708        49.000          52.800          53.300  
  22102576.38307  22102588.47307  22102587.43008 116149723.60007  90506354.25607
  86735245.90108  22102588.30907        42.600          43.400          48.700  
  23513319.02306                                 123563286.28306  96283205.00803
                  23513330.11303        39.400          23.000                  
  25097843.37505  25097864.81305  25097865.21907 131889997.67305 102771510.80803
  98489340.57907  25097864.53103        32.200          22.900          43.300  
  22080480.07007  22080491.95707  22080489.99608 116033682.25207  90415937.46307
  86648589.30208  22080491.98407        42.200          42.200          48.400  
  25243626.02305  25243640.64806  25243639.13707 132656097.30805 103368479.33004
  99061453.38107  25243640.03904        35.800          28.500          42.300  
 25 04 20 00 02 10.0000000  0 10G01G02G04G07G08G09G16G26G27G30      -0.000000002
  22961108.86706  22961120.82807  22961123.24207 120661419.19006  94021951.64404
  90104370.40507  22961120.64804        38.800          25.300          44.600  
  21074298.13307                                 110746080.41407  86295771.25906
                  21074305.53906        47.300          39.900                  
  22318459.39107  22318470.69907  22318472.79307 117284261.05807  91390366.99205
  87582434.03707  22318470.57405        42.500          31.300          46.900  
  22445905.35207  22445913.57807                 117953956.08307  91912278.05307
                  22445913.62107        44.100          43.000                  
  20133668.58608  20133679.42208  20133676.49608 105803083.93508  82444063.41308
  79008880.89308  20133678.82408        48.800          52.700          53.400  
  22103915.13307  22103926.66007  22103925.82407 116156757.38307  90511835.10607
  86740498.37907  22103926.80907        43.300          43.600          47.900  
  23515036.25806                                 123572310.29506  96290236.66203
                  23515047.28103        39.400          23.200                  
  25099676.77305  25099698.20705  25099698.74207 131899631.39205 102779017.55604
  98496534.51307  25099697.82404        31.700          24.500          42.500  
  22083322.76607  22083335.02307  22083332.71107 116048620.53107  90427577.66307
  86659744.47507  22083334.57407        42.300          42.400          47.900  
  25240390.46106  25240405.08206  25240403.63707 132639094.05706 103355230.02904
  99048756.14007  25240404.41804        36.300          27.900          42.900  
 25 04 20 00 02 15.0000000  0 10G01G02G04G07G08G09G16G26G27G30      -0.000000002
  22958101.99206  22958113.66006  22958116.09007 120645616.80306  94009638.08704
  90092569.94807  22958113.50004        39.300          25.900          43.900  
  21072640.19507                                 110737366.98707  86288981.58606
                  21072647.45306        47.200          40.600                  
  22321046.71107  22321057.95707  22321060.21107 117297858.02507  91400962.02105
  87592587.59007  22321058.09005        42.900          32.300          46.700  
  22443134.43007  22443142.60907                 117939394.57907  91900931.43307
                  22443142.60507        44.100          42.500                  
  20134790.46908  20134801.37908  20134798.31308 105808979.32408  82448657.21208
  79013283.28708  20134800.74608        49.400          52.700          53.200  
  22105255.56307  22105267.49207  22105266.47307 116163801.96407  90517324.38507
  86745758.93307  22105267.37507        43.000          43.700          47.800  
  23516753.27306                                 123581334.22106  96297268.28003
                  23516764.48803        39.800          22.800                  
  25101509.92205  25101531.56305  25101532.16407 131909266.11305 102786525.10003
  98503729.17707  25101531.28503        32.300          22.800          42.300  
  22086166.20307  22086178.32807  22086176.15608 116063562.64707  90439220.85407
  86670902.52908  22086178.05507        42.700          42.400          48.700  
  25237154.82806  25237168.84805  25237167.98407 132622089.71006 103341979.88104
  99036058.11607  25237168.65204        36.000          26.200          43.900  
 25 04 20 00 02 20.0000000  0 10G01G02G04G07G08G09G16G26G27G30      -0.000000002
  22955095.16406  22955106.96906  22955109.39807 120629816.54806  93997326.25304
  90080771.06507  22955106.84004        39.500          25.300          44.500  
  21070984.51607                                 110728666.79807  86282202.22406
                  21070991.83606        47.100          39.800                  
  22323635.10207  22323646.34007  22323648.55907 117311459.97807  91411560.93305
  87602744.87607  22323646.44905        43.200          31.400          47.200  
  22440364.41407  22440372.34407                 117924837.54907  91889588.30307
                  22440372.44507        43.900          42.500                  
  20135914.25008  20135925.13308  20135922.20308 105814885.38608  82453259.33308
  79017693.64908  20135924.65208        48.500          52.800          53.200  
  22106598.21907  22106609.92207  22106609.08608 116170857.39907  90522822.10707
  86751027.58508  22106609.96107        43.000          43.400          48.300  
  23518470.64106                                 123590358.06206  96304299.83003
                  23518481.58603        38.600          22.000                  
  25103343.39805  25103364.66805  25103365.57807                                
  98510924.63907  25103364.95303        32.200          23.300          42.000  
  22089010.62507  22089022.59007  22089020.46108 116078508.65707  90450867.07407
  86682063.48808  22089022.16007        42.600          42.400          48.400  
  25233918.71105  25233933.24205  25233931.96907 132605084.47505 103328729.08104
  99023359.37207  25233932.60204        35.200          24.500          42.700  
 25 04 20 00 02 25.0000000  0 10G01G02G04G07G08G09G16G26G27G30      -0.000000002
  22952088.66406  22952100.43006  22952103.11707 120614018.44906  93985016.04004
  90068973.79907  22952100.58204        39.600          25.600          44.300  
  21069331.44507                                 110719979.91607  86275433.22806
                  21069338.74606        47.200          40.100                  
  22326224.55507  22326235.61307  22326237.85507 117325066.98607  91422163.76105
  87612905.91407  22326235.68005        42.900          31.300          47.500  
  22437594.89107  22437603.62907                 117910285.10807  91878248.73907
                  22437603.27707        44.000          42.100                  
  20137040.25808  20137051.13308  20137048.18008 105820802.17008  82457869.80308
  79022112.01208  20137050.52008        48.900          52.700          53.300  
  22107942.68007  22107954.44107  22107953.68408 116177923.71907  90528328.32007
  86756304.36308  22107954.51207        43.300          43.500          48.300  
  23520187.79706                                 123599381.92706  96311331.37103
                  23520198.80103        39.100          22.500                  
  25105177.29705  25105198.91405  25105199.75007 131928538.77005 102801542.65503
  98518120.95907  25105198.82803        34.000          22.900          42.900  
  22091855.53907  22091867.35207  22091865.35508 116093458.56607  90462516.32907
  86693227.36908  22091867.02007        42.200          42.500          48.700  
  25230682.57805  25230696.60505  25230695.88707 132588078.29805 103315477.45904
  99010659.96807  25230696.42204        35.300          25.300          42.700  
 25 04 20 00 02 30.0000000  0 10G01G02G04G07G08G09G16G26G27G30       0.000000000
  22949083.27306  22949094.53106  22949097.29307 120598222.43206  93972707.46304
  90057178.09107  22949094.75804        39.600          26.800          44.200  
  21067681.01607                                 110711306.22507  86268674.51006
                  21067688.22306        47.300          40.200                  
  22328814.73406  22328826.09407  22328828.16807 117338678.88606  91432770.41305
  87623070.62307  22328825.93805        41.700          31.400          47.300  
  22434826.66407  22434834.82407                 117895737.07507  91866912.61707
                  22434834.84407        43.900          42.700                  
  20138168.20308  20138179.05508  20138176.10908 105826729.52508  82462488.51708
  79026538.27608  20138178.49608        49.000          52.800          53.400  
  22109289.62507  22109301.27007  22109300.43808 116185000.83407  90533842.94907
  86761589.21108  22109301.09807        43.100          43.200          48.300  
  23521903.95306                                 123608405.70406  96318362.85103
                  23521915.99603        38.300          22.600                  
  25107011.03905  25107033.32805  25107033.87507 131938176.67905 102809052.63504
  98525318.05907  25107032.98404        33.900          24.300          42.400  
  22094701.19507  22094712.68407  22094710.85207 116108412.32707  90474168.60107
  86704394.11107  22094712.63307        42.300          42.000          47.900  
  25227446.27305  25227460.34006  25227459.39807 132571071.19205 103302225.19604
  98997959.84307  25227460.10904        35.000          26.700          43.800  
 25 04 20 00 02 35.0000000  0 10G01G02G04G07G08G09G16G26G27G30       0.000000000
  22946077.62506  22946089.28906  22946091.86307 120582428.64606  93960400.63604
  90045384.02707  22946089.21104        40.000          24.700          44.400  
  21066032.89107                                 110702645.86107  86261926.16906
                  21066040.12506        47.300          40.000                  
  22331406.21107  22331417.31607  22331419.31307 117352295.80107  91443380.96805
  87633239.07207  22331417.01605        42.300          32.300          47.000  
  22432059.19507  22432067.44507                 117881193.63907  91855580.06507
                  22432067.27007        44.100          42.600                  
